FMT, 128, 89, FMT, BBnNZ, Type,Length,Name,Format,Columns
FMT, 129, 23, PARM, Nf, Name,Value
FMT, 130, 45, GPS, BIHBcLLeeEefI, Status,TimeMS,Week,NSats,HDop,Lat,Lng,RelAlt,Alt,Spd,GCrs,VZ,T
FMT, 131, 31, IMU, Iffffff, TimeMS,GyrX,GyrY,GyrZ,AccX,AccY,AccZ
FMT, 132, 67, MSG, Z, Message
FMT, 133, 35, RCIN, Ihhhhhhhhhhhhhh, TimeMS,C1,C2,C3,C4,C5,C6,C7,C8,C9,C10,C11,C12,C13,C14
FMT, 134, 23, RCOU, Ihhhhhhhh, TimeMS,Chan1,Chan2,Chan3,Chan4,Chan5,Chan6,Chan7,Chan8
FMT, 136, 21, BARO, Iffcf, TimeMS,Alt,Press,Temp,CRt
FMT, 137, 13, POWR, ICCH, TimeMS,Vcc,VServo,Flags
FMT, 145, 41, CMD, IHHHfffffff, TimeMS,CTot,CNum,CId,Prm1,Prm2,Prm3,Prm4,Lat,Lng,Alt
FMT, 146, 16, RAD, IBBBBBHH, TimeMS,RSSI,RemRSSI,TxBuf,Noise,RemNoise,RxErrors,Fixed
FMT, 148, 31, CAM, IHLLeeccC, GPSTime,GPSWeek,Lat,Lng,Alt,RelAlt,Roll,Pitch,Yaw
FMT, 144, 46, GPS2, BIHBcLLeEefIBI, Status,TimeMS,Week,NSats,HDop,Lat,Lng,Alt,Spd,GCrs,VZ,T,DSc,DAg
FMT, 135, 31, IMU2, Iffffff, TimeMS,GyrX,GyrY,GyrZ,AccX,AccY,AccZ
FMT, 149, 31, IMU3, Iffffff, TimeMS,GyrX,GyrY,GyrZ,AccX,AccY,AccZ
FMT, 138, 25, AHR2, IccCfLL, TimeMS,Roll,Pitch,Yaw,Alt,Lat,Lng
FMT, 139, 25, SIM, IccCfLL, TimeMS,Roll,Pitch,Yaw,Alt,Lat,Lng
FMT, 140, 43, EKF1, IccCffffffccc, TimeMS,Roll,Pitch,Yaw,VN,VE,VD,PN,PE,PD,GX,GY,GZ
FMT, 141, 26, EKF2, Ibbbcchhhhhh, TimeMS,AX,AY,AZ,VWN,VWE,MN,ME,MD,MX,MY,MZ
FMT, 142, 27, EKF3, Icccccchhhc, TimeMS,IVN,IVE,IVD,IPN,IPE,IPD,IMX,IMY,IMZ,IVT
FMT, 143, 25, EKF4, IcccccccbbBB, TimeMS,SV,SP,SH,SMX,SMY,SMZ,SVT,OFN,EFE,FS,DS
FMT, 150, 30, TERR, IBLLHffHH, TimeMS,Status,Lat,Lng,Spacing,TerrH,CHeight,Pending,Loaded
FMT, 151, 12, UBX1, IBHBB, TimeMS,Instance,noisePerMS,jamInd,aPower
FMT, 152, 12, UBX2, IBbBbB, TimeMS,Instance,ofsI,magI,ofsQ,magQ
FMT, 25, 25, ATUN, BBfffff, Axis,TuneStep,RateMin,RateMax,RPGain,RDGain,SPGain
FMT, 26, 9, ATDE, cf, Angle,Rate
FMT, 9, 23, CURR, IhIhhhf, TimeMS,ThrOut,ThrInt,Volt,Curr,Vcc,CurrTot
FMT, 12, 20, OF, hhBccee, Dx,Dy,SQual,X,Y,Roll,Pitch
FMT, 5, 47, NTUN, Iffffffffff, TimeMS,DPosX,DPosY,PosX,PosY,DVelX,DVelY,VelX,VelY,DAccX,DAccY
FMT, 4, 33, CTUN, Ihhhffecchh, TimeMS,ThrIn,AngBst,ThrOut,DAlt,Alt,BarAlt,DSAlt,SAlt,DCRt,CRt
FMT, 15, 25, MAG, Ihhhhhhhhh, TimeMS,MagX,MagY,MagZ,OfsX,OfsY,OfsZ,MOfsX,MOfsY,MOfsZ
FMT, 27, 25, MAG2, Ihhhhhhhhh, TimeMS,MagX,MagY,MagZ,OfsX,OfsY,OfsZ,MOfsX,MOfsY,MOfsZ
FMT, 28, 25, MAG3, Ihhhhhhhhh, TimeMS,MagX,MagY,MagZ,OfsX,OfsY,OfsZ,MOfsX,MOfsY,MOfsZ
FMT, 6, 17, PM, HHIhBHB, NLon,NLoop,MaxT,PMT,I2CErr,INSErr,INAVErr
FMT, 1, 23, ATT, IccccCCCC, TimeMS,DesRoll,Roll,DesPitch,Pitch,DesYaw,Yaw,ErrRP,ErrYaw
FMT, 3, 6, MODE, Mh, Mode,ThrCrs
FMT, 10, 3, STRT, , 
FMT, 13, 4, EV, B, Id
FMT, 20, 6, D16, Bh, Id,Value
FMT, 21, 6, DU16, BH, Id,Value
FMT, 22, 8, D32, Bi, Id,Value
FMT, 23, 8, DU32, BI, Id,Value
FMT, 24, 8, DFLT, Bf, Id,Value
FMT, 19, 5, ERR, BB, Subsys,ECode
MSG, ArduCopter V3.2.1 (36b405fb)
MSG, PX4: ce602658 NuttX: 475b8c15
MSG, PX4v2 003F002A 3233470B 35343439
MSG, Frame: QUAD
MODE, Stabilize, 294
EV, 10
MODE, Stabilize, 294
GPS, 3, 46260000, 1849, 14, 1.40, 51.0749402, 10.9915006, 0.00, 158.15, 0.01, 0.00, 0.07, 111991
IMU, 111992, -0.0005903952, 0.0001248941, 4.69165E-05, -0.06552186, 0.2996248, -9.82953
IMU2, 111992, -0.002197891, 0.003209619, 0.001007177, -0.07313246, 0.09435427, -9.947331
BARO, 111994, -0.0756407, 99199.49, 44.23, -0.1098052
CTUN, 111994, 0, 0, 0, 0, 0, -0.07, 0.00, 0.00, 0, -6
ATT, 112004, 0.00, -0.30, 0.00, 1.75, 245.65, 245.65, 0.07, 0.01
EKF1, 112004, -0.98, 2.78, 248.79, -0.0343729, 0.0154761, 0.01004669, -0.009617652, 0.003115689, -0.07188799, 0.00, 0.00, 0.00
EKF2, 112004, 50, 0, 0, 0.00, 0.00, 196, 4, 433, 95, 9, 0
EKF3, 112004, -0.03, 0.02, -0.06, 0.00, -0.01, -0.16, -51, -19, -3, 0.00
EKF4, 112004, 0.01, 0.00, 0.00, 0.34, 0.12, 0.02, 0.00, 0, 0, 1, 124
AHR2, 112004, -0.98, 2.78, 248.79, 158.18, 51.0749403, 10.9915003
RCIN, 112004, 1517, 1515, 1025, 1638, 1165, 1515, 968, 968, 1514, 1514, 1514, 1514, 1514, 1514
RCOU, 112004, 1095, 1095, 1095, 1095, 0, 0, 0, 0
UBX1, 112012, 0, 96, 11, 1
UBX2, 112012, 0, -2, 142, 17, 154
GPS, 3, 46260600, 1849, 14, 1.40, 51.0749402, 10.9915005, 0.00, 158.16, 0.01, 0.00, 0.08, 112012
IMU, 112013, 0.0006666463, 0.0009157993, -0.0008039401, -0.09803968, 0.3076834, -9.852219
IMU2, 112013, 0.002038777, -0.002819512, 0.003982738, -0.04738086, 0.1122968, -9.88037
IMU, 112032, -0.005372408, 0.004829861, -0.007037571, -0.0593637, 0.3117421, -9.580834
IMU2, 112032, -0.009645805, -0.003491512, -0.01252828, -0.01162982, 0.1084726, -9.591917
IMU, 112054, -0.0003831238, -0.001223594, 0.0008009946, -0.1396752, 0.2464231, -9.477284
IMU2, 112054, 0.005639419, -0.01056883, -0.000526458, -0.09580731, 0.006376505, -9.528468
IMU, 112073, -0.0007264912, -0.002430432, 0.00176333, 0.2435023, 0.3414644, -9.798042
IMU2, 112073, -0.002966136, -0.006445, 0.001536526, 0.2228088, 0.1152644, -9.942019
DU32, 7, 672217
CURR, 112076, 0, 0, 1144, 45, 5372, 13.82834
POWR, 112076, 5.37, 5.03, 3
MAG, 112085, -88, 180, 432, -95, -9, 0, 0, 0, 0
MAG2, 112085, -115, 162, 424, -419, -248, -105, 0, 0, 0
IMU, 112093, -0.01412371, 0.01494503, -0.002753873, -0.01630842, -0.2362225, -10.57927
IMU2, 112093, -0.0148918, 0.01437731, -0.009699054, 0.04303312, -0.359496, -10.48844
BARO, 112096, -0.06982219, 99199.43, 44.24, 0.07269772
CTUN, 112096, 0, 0, 0, 0, 0, -0.06, 0.00, 0.00, 0, -6
ATT, 112106, 0.00, -0.32, 0.00, 1.74, 245.66, 245.66, 0.08, 0.01
EKF1, 112106, -0.97, 2.76, 248.80, -0.005363943, 0.04382603, 0.01568683, -0.01184753, 0.008173352, 0.07375897, 0.00, 0.00, 0.00
EKF2, 112106, 50, 0, 0, 0.00, 0.00, 196, 4, 433, 95, 9, 0
EKF3, 112106, -0.02, 0.01, -0.06, 0.00, -0.01, -0.08, 0, 0, 0, 0.00
EKF4, 112106, 0.01, 0.00, 0.00, 0.00, 0.00, 0.00, 0.00, 0, 0, 1, 0
AHR2, 112106, -0.97, 2.76, 248.80, 158.03, 51.0749402, 10.9915004
RCIN, 112106, 1517, 1513, 1025, 1568, 1164, 1515, 968, 968, 1514, 1514, 1514, 1514, 1514, 1514
RCOU, 112106, 1095, 1095, 1095, 1095, 0, 0, 0, 0
IMU, 112113, -0.004445112, 0.000907395, -0.009137592, 0.08374354, 0.4881653, -9.466226
IMU2, 112113, -0.005449153, -0.01104384, -0.01369369, 0.06754839, 0.4544778, -9.469568
IMU, 112134, -0.010074, -0.01090721, -0.0166828, 0.161947, 0.9032345, -10.10672
IMU2, 112134, -0.008212075, -0.01470319, -0.01962325, 0.2049369, 0.6766093, -10.34653
IMU, 112154, 0.005363964, 0.02797404, 0.004028892, -0.4251625, -1.388382, -10.71481
IMU2, 112154, -0.03245404, 0.03668609, -0.01216763, -0.5385399, -1.637762, -10.98855
IMU, 112174, -0.041518, 0.03489168, -0.01128771, 0.3565278, 0.8771708, -8.726234
IMU2, 112174, -0.05301211, 0.01502772, -0.007600937, 0.5188905, 0.5864183, -8.798323
MAG, 112186, -89, 184, 435, -95, -9, 0, 0, 0, 0
MAG2, 112186, -118, 168, 420, -419, -248, -105, 0, 0, 0
IMU, 112194, 0.08362852, -0.05886876, 0.002363742, 0.5201759, 0.9852269, -9.321402
IMU2, 112194, 0.1120525, -0.07120362, 0.01482257, 0.6449705, 0.9534155, -9.52844
BARO, 112197, -0.192011, 99200.72, 44.26, -0.07177676
CTUN, 112197, 0, 0, 0, 0, 0, -0.19, 0.00, 0.00, 0, -6
ATT, 112207, 0.00, -0.35, 0.00, 1.69, 245.65, 245.65, 0.08, 0.01
EKF1, 112207, -0.96, 2.72, 248.79, 0.02974059, 0.05966808, 0.01393265, -0.01095172, 0.0149229, 0.1170793, 0.00, 0.00, 0.00
EKF2, 112207, 50, 0, 0, 0.00, 0.00, 196, 4, 433, 95, 9, 0
EKF3, 112207, -0.02, 0.01, -0.06, 0.00, -0.01, -0.10, 0, -4, -2, 0.00
EKF4, 112207, 0.01, 0.00, 0.00, 0.00, 0.02, 0.01, 0.00, 0, 0, 1, 0
AHR2, 112207, -0.96, 2.72, 248.79, 157.99, 51.0749403, 10.9915005
RCIN, 112207, 1517, 1515, 1025, 1522, 1165, 1515, 968, 968, 1514, 1514, 1514, 1514, 1514, 1514
RCOU, 112207, 1095, 1095, 1095, 1095, 0, 0, 0, 0
IMU, 112215, -0.02851793, 0.01448048, -0.0149999, -0.9350359, -0.6961109, -8.550808
IMU2, 112215, -0.07286876, 0.03287143, -0.01312242, -0.975763, -0.7272952, -8.493485
GPS, 3, 46261400, 1849, 14, 1.40, 51.0749405, 10.9915004, -0.01, 158.21, 0.04, 0.00, 0.09, 112234
IMU, 112234, -0.01826911, 0.03437725, 0.01748101, 0.2866066, 1.245846, -10.01894
IMU2, 112234, 0.007188678, 0.008375296, 0.03191069, 0.669754, 0.8488835, -10.47729
IMU, 112256, 0.01894786, -0.0401616, 0.009305246, 0.2351251, -0.9933438, -10.09054
IMU2, 112256, 0.015283, -0.059181, -0.0194843, -0.1315492, -1.304979, -10.31151
IMU, 112275, -0.02190107, 0.0001817942, -0.04908044, -1.246947, 0.2119806, -9.51909
IMU2, 112275, -0.06562559, 0.04027698, -0.05335122, -1.265713, -0.07241535, -9.340414
MAG, 112288, -88, 181, 434, -95, -9, 0, 0, 0, 0
MAG2, 112288, -118, 170, 421, -419, -248, -105, 0, 0, 0
IMU, 112296, -0.05184205, 0.06219514, 0.0618576, -0.9277279, 0.8592857, -10.13663
IMU2, 112296, -0.05947424, 0.0741277, 0.08072895, -0.8248986, 0.7708306, -10.16533
BARO, 112298, -0.09891476, 99199.7, 44.26, -0.1028899
CTUN, 112298, 0, 0, 0, 0, -0.02, -0.09, 0.00, 0.00, 0, -5
ATT, 112308, 0.00, -0.46, 0.00, 1.74, 245.69, 245.69, 0.04, 0.01
EKF1, 112308, -1.03, 2.78, 248.83, 0.04941379, 0.08357067, 0.02706988, -0.003613059, 0.02188182, 0.1503202, 0.00, 0.00, 0.00
EKF2, 112308, 50, 0, 0, 0.00, 0.00, 196, 4, 433, 95, 9, 0
EKF3, 112308, -0.01, 0.06, -0.07, -0.03, 0.00, 0.02, 0, -1, -1, 0.00
EKF4, 112308, 0.01, 0.00, 0.00, 0.00, 0.01, 0.01, 0.00, 0, 0, 1, 0
AHR2, 112308, -1.03, 2.78, 248.83, 157.95, 51.0749403, 10.9915006
RCIN, 112308, 1517, 1513, 1025, 1520, 1165, 1515, 968, 968, 1514, 1514, 1514, 1514, 1514, 1514
RCOU, 112308, 1095, 1095, 1095, 1095, 0, 0, 0, 0
IMU, 112315, 0.06500666, -0.0394915, -0.02928608, 0.5492747, -0.8142102, -8.934996
IMU2, 112315, 0.0285276, -0.05803537, -0.02070492, 0.4945118, -0.9461242, -8.855746
IMU, 112336, -0.01337195, -0.03100053, -0.001490304, 0.1860747, -2.397803, -11.22188
IMU2, 112336, -0.06002659, -0.01118625, -0.04877909, -0.2651688, -1.929072, -10.99498
IMU, 112355, -0.08719242, 0.08063146, -0.01056535, -0.1787404, 2.429798, -10.30725
IMU2, 112355, -0.03911874, 0.1030095, 0.02498249, 0.09746325, 2.709348, -10.57753
IMU, 112376, 0.07529733, -0.01921091, 0.01329495, 0.1552282, 1.882771, -10.86011
IMU2, 112376, 0.09578528, -0.05499431, 0.006762382, 0.1994263, 1.129486, -10.91815
MAG, 112388, -90, 183, 434, -95, -9, 0, 0, 0, 0
MAG2, 112388, -119, 169, 422, -419, -248, -105, 0, 0, 0
IMU, 112395, 0.08898312, -0.0641083, 0.02667663, -0.3240374, -1.223458, -10.44347
IMU2, 112395, 0.02975401, -0.05979068, -0.001264874, -0.4051123, -1.334985, -10.16621
BARO, 112399, -0.01745555, 99198.87, 44.26, -0.2317693
CTUN, 112400, 0, 0, 0, 0, -0.03, -0.01, 0.00, 0.00, 0, -8
ATT, 112409, 0.00, -0.38, 0.00, 1.64, 245.69, 245.69, 0.04, 0.01
EKF1, 112409, -0.94, 2.69, 248.81, 0.08577392, 0.1037263, 0.03077171, 0.008419571, 0.02992149, 0.1452859, 0.00, 0.00, 0.00
EKF2, 112409, 50, 0, 0, 0.00, 0.00, 196, 4, 433, 95, 9, 0
EKF3, 112409, -0.01, 0.06, -0.07, -0.03, 0.00, 0.13, 1, -4, -1, 0.00
EKF4, 112409, 0.01, 0.00, 0.01, 0.00, 0.02, 0.01, 0.00, 0, 0, 1, 0
AHR2, 112409, -0.94, 2.69, 248.81, 157.96, 51.0749403, 10.9915007
RCIN, 112409, 1517, 1513, 1025, 1520, 1165, 1515, 968, 968, 1514, 1514, 1514, 1514, 1514, 1514
RCOU, 112409, 1095, 1095, 1095, 1095, 0, 0, 0, 0
IMU, 112417, -0.03613975, 0.03620482, -0.01171151, -0.3199337, -0.5326114, -10.25787
IMU2, 112417, -0.0319562, 0.04768548, 0.01284297, 0.1457647, -0.618899, -10.41687
GPS, 3, 46261600, 1849, 14, 1.40, 51.0749405, 10.9915002, -0.04, 158.23, 0.03, 0.00, 0.05, 112437
IMU, 112437, -0.02007937, 0.02536766, -0.001391141, 0.6158134, -0.09910142, -10.85014
IMU2, 112437, -0.07592412, 0.03239745, -0.044819, 0.4099426, 0.02590096, -10.23701
IMU, 112458, 0.005015966, -0.04445023, -0.009860917, -0.5546037, 1.279034, -10.33116
IMU2, 112458, 0.01994707, -0.03062178, 0.006042052, -0.2251565, 1.323336, -10.70508
IMU, 112478, 0.03515784, -0.01386924, 0.002579409, -0.4381167, 0.3253532, -11.39171
IMU2, 112478, 0.0989545, -0.03473274, 0.01486425, -0.2071238, -0.7834954, -12.12164
RAD, 112486, 117, 116, 100, 37, 43, 1, 0
RAD, 112486, 117, 116, 100, 37, 43, 1, 0
MAG, 112491, -88, 181, 433, -95, -9, 0, 0, 0, 0
MAG2, 112491, -117, 166, 419, -419, -248, -105, 0, 0, 0
IMU, 112498, 0.0147209, -0.008901495, 0.02265836, 0.6864149, -0.7348257, -11.39399
IMU2, 112498, -0.08732186, 0.02982178, -0.01069274, 0.007680416, -0.7419544, -10.92379
BARO, 112501, -0.1629184, 99200.43, 44.28, 0.008713863
CTUN, 112501, 0, 0, 0, 0, -0.04, -0.16, 0.00, 0.00, 0, -7
ATT, 112511, 0.00, -0.45, 0.00, 1.68, 245.71, 245.71, 0.03, 0.01
EKF1, 112511, -0.99, 2.73, 248.83, 0.110833, 0.1218737, 0.0302124, 0.02007667, 0.03867555, 0.1257822, 0.00, 0.00, 0.00
EKF2, 112511, 49, 0, 0, 0.00, 0.00, 196, 4, 433, 95, 9, 0
EKF3, 112511, 0.04, 0.04, -0.03, -0.03, 0.02, -0.02, 0, -2, -1, 0.00
EKF4, 112511, 0.01, 0.00, 0.00, 0.00, 0.01, 0.00, 0.00, 0, 0, 1, 0
AHR2, 112511, -0.99, 2.73, 248.83, 157.98, 51.0749404, 10.9915008
RCIN, 112511, 1517, 1513, 1025, 1518, 1165, 1515, 968, 968, 1514, 1514, 1514, 1514, 1514, 1514
RCOU, 112511, 1095, 1095, 1095, 1095, 0, 0, 0, 0
IMU, 112519, -0.05772776, 0.02149892, -0.03669763, -0.9838675, 1.237785, -9.834139
IMU2, 112519, -0.04496588, 0.02034733, -0.01112774, -0.6574944, 1.546749, -10.06885
IMU, 112539, 0.04681574, -0.03966925, 0.01721052, 0.1876299, 0.3767394, -9.624826
IMU2, 112539, 0.0812441, -0.07577804, 0.01734723, 0.4742326, -0.2028664, -10.19682
IMU, 112558, 0.005240604, -0.001789495, 0.0163045, 0.4563093, -0.8649452, -10.9011
IMU2, 112558, -0.0364487, 0.004324468, -0.01158125, -0.01106226, -1.08044, -10.92307
IMU, 112580, -0.02282246, -0.01826914, -0.03100179, -0.7551606, 0.4815975, -10.49672
IMU2, 112580, -0.03200626, 0.005144471, -0.0186522, -0.27206, 0.7179903, -10.95375
MAG, 112592, -90, 183, 434, -95, -9, 0, 0, 0, 0
MAG2, 112592, -117, 166, 420, -419, -248, -105, 0, 0, 0
IMU, 112600, -0.003139518, 0.04946078, 0.02440988, -0.3038919, 1.02937, -10.95282
IMU2, 112600, 0.04666406, 0.02325403, 0.01824322, -0.1989243, 0.1801337, -11.28376
BARO, 112602, 0.008727774, 99198.57, 44.28, 0.1925847
CTUN, 112602, 0, 0, 0, 0, -0.06, 0.00, 0.00, 0.00, 0, -8
ATT, 112612, 0.00, -0.49, 0.00, 1.69, 245.70, 245.70, 0.03, 0.00
EKF1, 112612, -1.02, 2.72, 248.82, 0.1374555, 0.1469404, 0.0301596, 0.0346051, 0.04798207, 0.1308499, 0.00, 0.00, 0.00
EKF2, 112612, 49, 0, 0, 0.00, 0.00, 196, 4, 433, 95, 9, 0
EKF3, 112612, 0.04, 0.04, -0.03, -0.03, 0.02, 0.13, 2, -3, -2, 0.00
EKF4, 112612, 0.01, 0.00, 0.01, 0.01, 0.02, 0.01, 0.00, 0, 0, 1, 0
AHR2, 112612, -1.02, 2.72, 248.82, 157.97, 51.0749406, 10.9915009
RCIN, 112613, 1517, 1513, 1025, 1520, 1164, 1515, 968, 968, 1514, 1514, 1514, 1514, 1514, 1514
RCOU, 112613, 1095, 1095, 1095, 1095, 0, 0, 0, 0
IMU, 112620, 0.03246869, -0.03936373, 0.008677694, 0.3441733, -0.943004, -10.53056
IMU2, 112620, -0.03704755, -0.03386842, -0.02056271, -0.1349883, -1.096825, -10.01813
GPS, 3, 46261800, 1849, 14, 1.40, 51.0749405, 10.9915, -0.06, 158.23, 0.06, 0.00, -0.09, 112640
IMU, 112640, 0.001211861, -0.02354286, -0.02042755, -1.392943, 0.1290708, -10.37872
IMU2, 112640, -0.0144127, -0.0003421362, -0.02289259, -1.020889, 0.1441364, -10.64992
IMU, 112660, -0.01037475, 0.0427846, 0.03164409, 0.177639, 0.2562079, -10.04416
IMU2, 112660, -0.003749534, 0.05923038, 0.04976352, 0.2904533, -0.1070635, -10.09022
IMU, 112680, -0.0086118, 0.0160774, -0.02101814, 0.4459553, 0.3675975, -9.500501
IMU2, 112680, -0.005087264, -0.02778473, -0.02570717, 0.5758649, 0.1072009, -9.273856
MAG, 112692, -89, 182, 433, -95, -9, 0, 0, 0, 0
MAG2, 112692, -118, 165, 418, -419, -248, -105, 0, 0, 0
IMU, 112700, 0.02786773, -0.02502892, 0.01239066, -0.5236179, 0.6965585, -9.516742
IMU2, 112700, 0.0580492, -0.0302944, 0.03485946, -0.354522, 0.3335325, -9.780354
BARO, 112703, 0.06400368, 99197.99, 44.28, 0.1933788
CTUN, 112703, 0, 0, 0, 0, -0.06, 0.06, 0.00, 0.00, 0, -8
ATT, 112712, 0.00, -0.45, 0.00, 1.62, 245.71, 245.71, 0.01, 0.01
EKF1, 112712, -0.97, 2.64, 248.82, 0.1576892, 0.1621252, 0.01320628, 0.049573, 0.05507571, 0.1098543, 0.00, 0.00, 0.00
EKF2, 112712, 49, 0, 0, 0.00, 0.00, 196, 4, 433, 95, 9, 0
EKF3, 112712, 0.02, 0.12, 0.11, -0.01, 0.05, 0.19, 1, -3, -1, 0.00
EKF4, 112712, 0.02, 0.01, 0.01, 0.00, 0.02, 0.00, 0.00, 0, 0, 1, 0
AHR2, 112712, -0.97, 2.64, 248.82, 158, 51.0749407, 10.991501
RCIN, 112712, 1517, 1513, 1050, 1518, 1164, 1515, 968, 968, 1514, 1514, 1514, 1514, 1514, 1514
RCOU, 112713, 1095, 1095, 1095, 1095, 0, 0, 0, 0
IMU, 112720, 0.002023302, -0.012197, 0.007847709, -0.06657618, -1.808127, -10.15217
IMU2, 112720, -0.07346387, -0.02131492, 0.0009097829, -0.1689784, -2.065632, -9.73086
EV, 15
IMU, 112740, -0.04923841, 0.01497662, -0.01900978, -0.3968275, 1.606522, -10.87336
IMU2, 112740, -0.02578425, 0.02629142, -0.0231761, -0.2656392, 1.53413, -11.29083
IMU, 112760, 0.03308745, -0.009212054, 0.01205729, 0.7373042, 1.148082, -10.52222
IMU2, 112760, 0.02938357, -0.00226781, 0.0294244, 0.8328245, 0.8761386, -10.62821
IMU, 112780, 0.03839591, -0.03744555, -0.004029159, -0.03637712, 0.6568352, -9.422303
IMU2, 112780, 0.0851123, -0.05607307, -0.00365736, 0.04042661, 0.2656693, -9.761746
MAG, 112793, -89, 186, 436, -95, -9, 0, 0, 0, 0
MAG2, 112793, -119, 171, 411, -419, -248, -105, 0, 0, 0
IMU, 112801, -0.001026344, -0.01728526, 0.02604898, -0.5860916, -0.4140438, -9.810793
IMU2, 112801, -0.03851499, -0.01089674, 0.02161011, -0.7643126, -0.3320959, -9.778116
BARO, 112804, -0.04654813, 99199.13, 44.29, 0.2870219
CTUN, 112804, 132, 2, 134, 0, -0.06, -0.04, 0.00, 0.00, 0, -7
ATT, 112813, 0.00, -0.46, 0.00, 1.61, 245.70, 245.73, 0.01, 0.01
EKF1, 112813, -0.96, 2.63, 248.83, 0.1743266, 0.1778335, -0.006947539, 0.06684045, 0.06077081, 0.08403716, 0.00, 0.00, 0.00
EKF2, 112813, 49, 0, 0, 0.00, 0.00, 196, 4, 433, 95, 9, 0
EKF3, 112814, 0.02, 0.12, 0.11, -0.01, 0.05, 0.05, 1, -7, -4, 0.00
EKF4, 112814, 0.02, 0.01, 0.00, 0.00, 0.04, 0.02, 0.00, 0, 0, 1, 0
AHR2, 112814, -0.96, 2.63, 248.83, 158.02, 51.0749409, 10.9915011
RCIN, 112814, 1517, 1513, 1058, 1517, 1165, 1515, 968, 968, 1514, 1514, 1514, 1514, 1514, 1514
RCOU, 112814, 1159, 1176, 1161, 1165, 0, 0, 0, 0
IMU, 112822, -0.00885946, 0.008073982, -0.02984315, 0.4051097, 1.520603, -9.161906
IMU2, 112822, 0.02774449, -0.01416853, -0.015656, 0.6733984, 1.272575, -9.423271
GPS, 3, 46262000, 1849, 14, 1.40, 51.0749405, 10.9915, -0.06, 158.23, 0.03, 0.00, 0, 112842
IMU, 112842, -0.002312031, -0.01936332, -0.003816264, -0.2425192, -0.09035064, -8.836242
IMU2, 112842, -0.03121878, -0.02795827, -0.01522173, -0.3161583, -0.2160344, -8.652777
IMU, 112863, -0.01758361, 0.02929229, 0.02239733, 0.03608505, 1.32807, -8.780389
IMU2, 112863, 0.03561205, -0.005596258, 0.03266279, 0.1237673, 1.086893, -9.041462
IMU, 112882, 0.03469777, -0.0243669, -0.008897666, -0.3602349, 0.1639988, -10.04269
IMU2, 112882, 0.04170375, -0.03499247, -0.009617716, -0.3097439, -0.1085969, -9.981287
MAG, 112895, -88, 185, 436, -95, -9, 0, 0, 0, 0
MAG2, 112895, -121, 175, 406, -419, -248, -105, 0, 0, 0
IMU, 112902, -0.009010792, -0.003636658, -0.01894687, 0.2278869, 0.7422267, -9.158313
IMU2, 112902, -0.02168911, -0.01823084, -0.006683946, 0.3244854, 0.6025056, -9.103871
BARO, 112906, -0.180374, 99200.57, 44.29, 0.2996232
CTUN, 112906, 136, 0, 136, 0, -0.07, -0.18, 0.00, 0.00, 0, -8
ATT, 112915, 0.00, -0.46, 0.00, 1.53, 245.70, 245.73, 0.06, 0.01
EKF1, 112915, -0.93, 2.54, 248.81, 0.1924156, 0.1915847, -0.008956175, 0.07987716, 0.0699253, 0.07770602, 0.00, 0.00, 0.00
EKF2, 112915, 49, 0, 0, 0.00, 0.00, 196, 4, 433, 95, 9, 0
EKF3, 112915, 0.14, 0.11, 0.02, 0.01, 0.06, -0.09, 1, -6, -4, 0.00
EKF4, 112915, 0.02, 0.01, 0.00, 0.00, 0.04, 0.02, 0.00, 0, 0, 1, 0
AHR2, 112915, -0.93, 2.54, 248.81, 158.03, 51.074941, 10.9915012
RCIN, 112915, 1517, 1513, 1065, 1517, 1165, 1515, 968, 968, 1514, 1514, 1514, 1514, 1514, 1514
RCOU, 112915, 1159, 1184, 1172, 1187, 0, 0, 0, 0
IMU, 112923, -0.02473113, 0.0217969, 0.005416295, 0.5944878, 0.4439696, -9.828019
IMU2, 112923, -0.02848143, 0.01915172, 0.01381977, 0.6830206, 0.2998009, -9.691081
IMU, 112943, 0.0232502, 0.0001936331, 0.01463805, -0.342167, 0.9350302, -8.996466
IMU2, 112943, 0.02720501, -0.01742126, 0.03040058, -0.2748508, 0.4806, -8.957829
IMU, 112963, -0.01257611, -0.01760894, -0.01258779, 0.29559, -0.3401345, -10.11444
IMU2, 112963, -0.04612949, -0.02189521, -0.01669604, 0.1157963, -0.2395942, -10.16726
IMU, 112983, 0.01013564, -0.000630606, -0.002138008, -0.2533172, 0.9969783, -9.133798
IMU2, 112983, 0.01985627, -0.005332759, 0.0173001, -0.1184647, 0.6389807, -9.268619
MAG, 112996, -89, 186, 436, -95, -9, 0, 0, 0, 0
MAG2, 112996, -120, 176, 407, -419, -248, -105, 0, 0, 0
IMU, 113005, -0.01338998, -0.0007522255, -0.002441608, 0.3174801, 1.116523, -10.35425
IMU2, 113005, -0.008096345, 0.005003439, -0.005992942, 0.3891532, 0.931023, -10.39041
BARO, 113006, -0.1629184, 99200.43, 44.31, -0.150369
CTUN, 113006, 173, 0, 173, 0, -0.08, -0.16, 0.00, 0.00, 0, -8
ATT, 113017, 0.00, -0.51, 0.00, 1.52, 245.70, 245.74, 0.06, 0.01
EKF1, 113017, -0.96, 2.50, 248.81, 0.2103263, 0.1991394, -0.02074757, 0.09169738, 0.07736817, 0.0854485, 0.00, 0.00, 0.00
EKF2, 113017, 49, 0, 0, 0.00, 0.00, 196, 4, 433, 95, 9, 0
EKF3, 113018, 0.14, 0.11, 0.02, 0.01, 0.06, -0.08, 2, -6, -4, 0.00
EKF4, 113018, 0.02, 0.01, 0.00, 0.01, 0.04, 0.02, 0.00, 0, 0, 1, 0
AHR2, 113018, -0.96, 2.50, 248.81, 158.02, 51.0749411, 10.9915014
RCIN, 113018, 1517, 1513, 1105, 1518, 1164, 1515, 968, 968, 1514, 1514, 1514, 1514, 1514, 1514
RCOU, 113018, 1203, 1209, 1192, 1220, 0, 0, 0, 0
GPS, 3, 46262200, 1849, 14, 1.40, 51.0749406, 10.9914999, -0.09, 158.24, 0.04, 0.00, -0.08, 113025
IMU, 113026, 0.007493123, -0.0180565, -0.003390522, -0.2050723, -1.069179, -9.378187
IMU2, 113026, -0.008777551, -0.01824476, -0.003700215, -0.2279732, -1.280161, -9.148173
IMU, 113046, -0.01713743, 0.05452703, -0.004819908, -0.04740766, 1.517742, -10.15198
IMU2, 113046, 0.01305979, 0.04045272, 0.01692771, -0.1309862, 1.197417, -10.18657
IMU, 113065, 0.03140833, -0.02466424, 0.02968721, 0.2353452, -0.3855921, -9.615382
IMU2, 113065, 0.01182285, -0.03348177, 0.01816516, 0.1232265, -0.9230478, -9.33064
IMU, 113085, -0.01518798, -0.003549393, 0.01373073, 0.09228196, 1.283832, -9.93968
IMU2, 113085, -0.01770639, -0.005040165, 0.02692135, 0.3213522, 0.9959522, -9.968802
DU32, 7, 147961
CURR, 113087, 227, 433, 1123, 653, 5388, 15.20712
POWR, 113087, 5.38, 5.04, 3
MAG, 113097, -88, 188, 437, -95, -9, 0, 0, 0, 0
MAG2, 113097, -120, 179, 391, -419, -248, -105, 0, 0, 0
EV, 28
IMU, 113106, -0.009099089, -0.03109432, -0.04524421, -0.3804767, 0.3975068, -10.18093
IMU2, 113106, -0.005307399, -0.03247168, -0.06028432, -0.5456812, 0.2886592, -10.35401
BARO, 113108, -0.4189332, 99203.13, 44.32, -0.6638232
CTUN, 113108, 252, 0, 252, 0, -0.09999999, -0.41, 0.00, 0.00, 0, -8
ATT, 113118, 0.00, -0.50, 0.00, 1.51, 245.70, 245.74, 0.01, 0.02
EKF1, 113118, -0.94, 2.46, 248.80, 0.2168872, 0.2120776, -0.02036151, 0.1040289, 0.08240663, 0.09220704, 0.00, 0.00, 0.00
EKF2, 113118, 49, 0, 0, 0.00, 0.00, 196, 4, 433, 95, 9, 0
EKF3, 113118, 0.13, 0.16, 0.07, 0.03, 0.08, -0.33, 1, -8, -5, 0.00
EKF4, 113118, 0.03, 0.01, 0.03, 0.00, 0.05, 0.03, 0.00, 0, 0, 1, 0
AHR2, 113118, -0.94, 2.46, 248.80, 158.01, 51.0749412, 10.9915014
RCIN, 113118, 1517, 1515, 1220, 1517, 1165, 1515, 968, 968, 1514, 1514, 1514, 1514, 1514, 1514
RCOU, 113119, 1277, 1304, 1291, 1295, 0, 0, 0, 0
UBX1, 113125, 0, 96, 10, 1
UBX2, 113125, 0, -5, 139, 16, 142
IMU, 113127, 0.01282848, 0.01964509, 0.01772455, -0.002212268, -0.839781, -9.475784
IMU2, 113127, 0.009144336, 0.017681, 0.01171542, 0.1771626, -1.061472, -9.501151
IMU, 113148, -0.04415028, -0.003006689, -0.02130957, 0.180044, 0.5050634, -9.866697
IMU2, 113148, -0.06912816, -0.0120818, -0.02256353, 0.3103734, 0.4545218, -9.875993
IMU, 113168, 0.05423557, -0.008293364, 0.04683348, -0.5767933, 0.9341396, -9.970822
IMU2, 113168, 0.0862862, -0.01411848, 0.05195474, -0.681064, 0.6465371, -10.24889
IMU, 113188, -0.01222301, -0.03147637, -0.03369504, -0.2353694, -0.1534373, -10.53897
IMU2, 113188, -0.03870781, -0.02795956, -0.03688142, -0.2645019, -0.3788276, -10.54448
MAG, 113200, -88, 194, 446, -95, -9, 0, 0, 0, 0
MAG2, 113200, -127, 196, 356, -419, -248, -105, 0, 0, 0
IMU, 113208, -0.01405186, -0.009829435, 0.01518722, 0.08476661, 1.461967, -10.04314
IMU2, 113208, 0.01282005, -0.00767165, 0.0217119, 0.1221868, 1.331833, -10.38779
BARO, 113209, -0.4596628, 99203.56, 44.32, -0.9206005
CTUN, 113210, 367, 0, 367, 0, -0.13, -0.45, 0.00, 0.00, 0, -9
RAD, 113216, 117, 116, 75, 36, 44, 1, 0
RAD, 113216, 117, 116, 75, 36, 44, 1, 0
ATT, 113221, 0.00, -0.53, 0.00, 1.45, 245.70, 245.76, 0.01, 0.03
EKF1, 113221, -0.96, 2.38, 248.80, 0.22446, 0.2213705, -0.0191492, 0.1189027, 0.09001765, 0.1201401, 0.00, 0.00, 0.00
EKF2, 113221, 49, 0, 0, 0.00, 0.00, 196, 4, 433, 95, 9, 0
EKF3, 113221, 0.13, 0.16, 0.07, 0.03, 0.08, -0.35, 2, -14, -13, 0.00
EKF4, 113221, 0.03, 0.01, 0.03, 0.01, 0.09, 0.08, 0.00, 0, 0, 1, 0
AHR2, 113221, -0.96, 2.38, 248.80, 157.98, 51.0749413, 10.9915015
RCIN, 113221, 1513, 1517, 1360, 1517, 1165, 1515, 968, 968, 1514, 1514, 1514, 1514, 1514, 1514
RCOU, 113222, 1427, 1467, 1457, 1436, 0, 0, 0, 0
GPS, 3, 46262400, 1849, 14, 1.40, 51.0749407, 10.9914999, -0.13, 158.26, 0.04, 0.00, -0.09999999, 113229
IMU, 113229, 0.02816568, -0.01103761, 0.0457086, 0.5377705, 0.6823722, -10.09887
IMU2, 113229, 0.03328542, -0.02425544, 0.05506758, 0.5945926, 0.2177014, -10.13652
IMU, 113249, 0.01431347, -0.04125635, -0.02721046, -0.3698097, -0.3463755, -10.30173
IMU2, 113249, -0.003049873, -0.03473796, -0.05912802, -0.5206556, -0.4443381, -10.34063
IMU, 113269, -0.02815552, -0.004200816, -0.03274524, 0.9518753, 0.6929028, -10.22741
IMU2, 113269, -0.03146857, 0.002294166, 0.002891406, 0.9466714, 0.4338949, -10.41494
IMU, 113290, -0.08719108, -0.03279453, 0.05247865, -0.3575715, 0.1960927, -10.63154
IMU2, 113290, -0.09031096, -0.03813098, 0.05574017, -0.4677066, -0.03412914, -10.75882
MAG, 113302, -84, 211, 461, -95, -9, 0, 0, 0, 0
MAG2, 113302, -142, 230, 293, -419, -248, -105, 0, 0, 0
IMU, 113310, -0.08218037, -0.1012743, 0.03893499, -1.441514, -0.5118425, -10.80634
IMU2, 113310, -0.07314394, -0.1322828, 0.02359638, -0.9403144, -1.25991, -10.88646
BARO, 113312, -1.326622, 99212.86, 44.33, -1.31482
CTUN, 113312, 543, 0, 543, 0, -0.16, -1.32, 0.00, 0.00, 0, -7
ATT, 113323, 0.00, -0.82, 0.00, 1.18, 245.70, 245.84, 0.02, 0.07
EKF1, 113323, -1.23, 2.07, 248.86, 0.2215241, 0.2225374, -0.06740522, 0.1317899, 0.09334285, 0.1546634, 0.00, 0.00, 0.00
EKF2, 113323, 48, 0, 0, 0.00, 0.00, 196, 4, 433, 95, 9, 0
EKF3, 113323, 0.15, 0.19, 0.08, 0.04, 0.10, -1.19, -1, -31, -28, 0.00
EKF4, 113323, 0.04, 0.02, 0.11, 0.00, 0.20, 0.18, 0.00, 0, 0, 1, 0
AHR2, 113323, -1.23, 2.07, 248.86, 157.95, 51.0749414, 10.9915016
RCIN, 113323, 1515, 1515, 1565, 1517, 1165, 1515, 968, 968, 1514, 1514, 1514, 1514, 1514, 1514
RCOU, 113323, 1586, 1612, 1616, 1583, 0, 0, 0, 0
IMU, 113330, -0.3207001, -0.2049615, -0.07984354, 2.121457, -1.581681, -12.25867
IMU2, 113330, -0.3953767, -0.2273334, -0.09267101, 2.364861, -1.653513, -12.06404
IMU, 113351, -0.4808026, -0.2629322, 0.01581336, -0.3225876, 0.2698119, -13.18871
IMU2, 113351, -0.4676813, -0.285854, 0.03994392, -1.09464, -0.94142, -12.83974
IMU, 113371, -0.753087, -0.4026406, -0.07834473, 0.8909958, -1.014021, -12.41855
IMU2, 113371, -0.8992521, -0.4695924, -0.09417136, 1.66306, -0.2755916, -12.51368
IMU, 113392, -0.9254181, -0.5378727, -0.04678511, 0.1916351, -0.3730521, -13.53132
IMU2, 113392, -0.9623283, -0.5507913, -0.03606974, 0.1604514, -0.7790117, -13.56172
MAG, 113404, -78, 207, 480, -95, -9, 0, 0, 0, 0
MAG2, 113404, -152, 247, 262, -419, -248, -105, 0, 0, 0
IMU, 113414, -1.183455, -0.6396431, -0.09989905, -0.9116737, -0.459801, -13.62405
IMU2, 113414, -1.20823, -0.6700006, -0.0966583, -0.6570685, -0.2135731, -13.72933
BARO, 113416, -2.181943, 99222, 44.34, -2.557473
CTUN, 113416, 636, 1, 637, 0, -0.22, -2.18, 0.00, 0.00, 0, 18
ATT, 113426, 0.00, -5.54, 0.00, -1.47, 245.70, 245.56, 0.02, 0.07
EKF1, 113426, -5.83, -0.58, 248.66, 0.09221391, 0.2090045, -0.3521347, 0.1389342, 0.09738287, 0.2474247, 0.00, 0.00, 0.00
EKF2, 113426, 48, 0, 0, 0.00, 0.00, 196, 4, 433, 95, 9, 0
EKF3, 113426, 0.15, 0.19, 0.08, 0.04, 0.10, -1.99, 0, -36, -42, 0.00
EKF4, 113426, 0.04, 0.02, 0.18, 0.00, 0.14, 0.17, 0.00, 0, 0, 1, 0
AHR2, 113426, -5.83, -0.58, 248.66, 157.86, 51.0749415, 10.9915016
RCIN, 113426, 1515, 1515, 1663, 1517, 1165, 1515, 968, 968, 1514, 1514, 1514, 1514, 1514, 1514
RCOU, 113426, 1649, 1769, 1820, 1546, 0, 0, 0, 0
GPS, 3, 46262600, 1849, 14, 1.40, 51.0749407, 10.9914998, -0.24, 158.26, 0.08, 0.00, -0.17, 113433
IMU, 113433, -1.131148, -0.5834244, -0.09075565, -0.6391109, 0.6184204, -15.63244
IMU2, 113433, -1.09111, -0.5579943, -0.08282316, -0.7114552, 0.1312857, -16.13813
IMU, 113455, -0.9608569, -0.3657454, -0.08372726, -0.3240379, 1.005547, -16.63979
IMU2, 113455, -0.8852945, -0.3291951, -0.07149881, -0.4911759, 0.9001592, -17.49308
IMU, 113475, -0.5190766, -0.1748899, -0.03169066, -0.9666964, 0.1801685, -17.53118
IMU2, 113475, -0.5022546, -0.139489, -0.02708399, -0.9415167, -0.1448866, -17.61563
IMU, 113496, -0.2089654, 0.01572146, -0.01032269, -0.4800924, 0.6946378, -18.19726
IMU2, 113496, -0.1663147, 0.03309937, 0.002052952, -0.1765739, 0.3046374, -18.76389
MAG, 113508, -58, 153, 497, -95, -9, 0, 0, 0, 0
MAG2, 113508, -138, 198, 299, -419, -248, -105, 0, 0, 0
IMU, 113516, 0.07667513, 0.1923452, 0.01234825, -0.5584779, -0.2579654, -18.61148
IMU2, 113516, 0.08082646, 0.2148566, 0.01726868, -0.3861762, -0.568607, -18.65945
BARO, 113518, -2.339043, 99223.63, 44.35, -4.588503
CTUN, 113518, 697, 6, 703, 0, -0.29, -2.33, 0.00, 0.00, 0, 87
ATT, 113528, 0.00, -8.34, 0.00, -2.28, 245.70, 245.40, 0.00, 0.07
EKF1, 113528, -8.77, -1.56, 248.50, -0.1124585, 0.2474775, -1.061458, 0.1285687, 0.1017559, 0.3528158, 0.00, 0.00, 0.00
EKF2, 113528, 48, 0, 0, 0.00, 0.00, 196, 4, 433, 95, 9, 0
EKF3, 113528, 0.14, 0.20, 0.14, 0.07, 0.12, -2.05, 2, -28, -41, 0.00
EKF4, 113528, 0.04, 0.02, 0.19, 0.01, 0.18, 0.26, 0.00, 0, 0, 1, 0
AHR2, 113528, -8.77, -1.56, 248.50, 157.75, 51.0749414, 10.9915017
RCIN, 113528, 1515, 1515, 1711, 1517, 1165, 1515, 968, 968, 1514, 1514, 1514, 1514, 1514, 1514
RCOU, 113529, 1710, 1759, 1731, 1738, 0, 0, 0, 0
IMU, 113537, 0.3575369, 0.2991648, 0.0392983, -0.7961405, 0.3928168, -19.87445
IMU2, 113537, 0.4011643, 0.3149268, 0.04143552, -0.7160233, 0.1309248, -20.30653
IMU, 113556, 0.6336805, 0.3358946, 0.05484659, -0.3814772, 0.5958371, -19.83086
IMU2, 113556, 0.6938663, 0.3334494, 0.06119959, -0.3107862, 0.182268, -20.52794
IMU, 113577, 0.7143397, 0.2901915, 0.03620884, -0.4887909, -0.3981504, -18.64163
IMU2, 113577, 0.6979677, 0.2705426, 0.03633126, -0.3506725, -0.7374906, -18.82328
IMU, 113597, 0.5419524, 0.238831, 0.02372042, -0.3896466, -0.6837394, -18.13853
IMU2, 113597, 0.4767129, 0.2079951, 0.03199654, -0.271104, -0.9450843, -18.21488
MAG, 113609, -59, 146, 489, -95, -9, 0, 0, 0, 0
MAG2, 113609, -127, 186, 324, -419, -248, -105, 0, 0, 0
IMU, 113617, 0.2634524, 0.184159, 0.0270179, -0.4909026, -0.7107483, -18.03646
IMU2, 113617, 0.220288, 0.1704772, 0.03513633, -0.3378004, -0.9334431, -17.90616
BARO, 113619, -0.9833292, 99209.16, 44.35, -5.216009
CTUN, 113619, 651, 2, 653, 0, -0.28, -0.98, 0.00, 0.00, 0, 176
ATT, 113629, 0.00, -5.50, 0.00, -0.72, 245.70, 245.51, 0.00, 0.06
EKF1, 113629, -5.87, -0.01, 248.53, -0.375214, 0.3171704, -1.921245, 0.09464575, 0.1123382, 0.3594542, 0.00, 0.00, 0.00
EKF2, 113629, 48, 0, 0, 0.00, 0.00, 196, 4, 433, 95, 9, 0
EKF3, 113629, 0.14, 0.20, 0.14, 0.07, 0.12, -0.61, -2, -19, -35, 0.00
EKF4, 113629, 0.04, 0.02, 0.05, 0.01, 0.11, 0.21, 0.00, 0, 0, 1, 0
AHR2, 113629, -5.87, -0.01, 248.53, 157.75, 51.0749411, 10.9915019
RCIN, 113629, 1520, 1506, 1627, 1518, 1165, 1515, 968, 968, 1514, 1514, 1514, 1514, 1514, 1514
RCOU, 113630, 1630, 1707, 1707, 1635, 0, 0, 0, 0
GPS, 3, 46262800, 1849, 14, 1.40, 51.0749405, 10.9914999, -0.25, 158.33, 0.37, 119.05, -0.71, 113637
IMU, 113637, 0.06536224, 0.1419921, 0.03093177, -0.4749407, -0.7964779, -17.7449
IMU2, 113637, 0.03940897, 0.1375239, 0.02975409, -0.3893701, -1.002733, -17.63828
IMU, 113658, -0.05210768, 0.1675147, 0.04740378, -0.5150968, -0.524973, -17.09023
IMU2, 113658, -0.05593961, 0.1793537, 0.04784286, -0.5663317, -0.736001, -17.22488
IMU, 113677, -0.05213125, 0.2172877, 0.06265686, -0.2630062, -0.1097145, -16.59381
IMU2, 113677, -0.04552786, 0.2260718, 0.06322584, -0.2704658, -0.3918625, -16.91577
IMU, 113699, -0.003805999, 0.2201657, 0.056427, -0.09382288, 0.005923249, -15.56684
IMU2, 113699, -0.02343112, 0.2100838, 0.05850663, 0.1316607, -0.228698, -15.63321
MAG, 113711, -72, 156, 475, -95, -9, 0, 0, 0, 0
MAG2, 113711, -132, 177, 348, -419, -248, -105, 0, 0, 0
IMU, 113719, 0.03903148, 0.1340512, 0.05223719, -0.01227754, -0.2157415, -14.70715
IMU2, 113719, 0.01281232, 0.1277391, 0.05557344, -0.07575983, -0.5361374, -14.48197
BARO, 113722, 0.2501962, 99196, 44.36, -1.905531
CTUN, 113722, 525, 1, 526, 0, -0.09999999, 0.25, 0.00, 0.00, 0, 245
ATT, 113731, 0.00, -5.53, 0.00, 0.26, 245.70, 245.75, 0.11, 0.06
EKF1, 113731, -5.88, 0.94, 248.72, -0.5851426, 0.386233, -2.591614, 0.02505704, 0.1366518, 0.1539731, 0.00, 0.00, 0.00
EKF2, 113731, 47, 0, 0, 0.00, 0.00, 196, 4, 433, 95, 9, 0
EKF3, 113731, 0.48, 0.15, 0.42, 0.11, 0.12, 0.55, 0, -15, -25, 0.00
EKF4, 113732, 0.07, 0.03, 0.05, 0.00, 0.09, 0.16, 0.00, 0, 0, 1, 0
AHR2, 113732, -5.88, 0.94, 248.72, 157.95, 51.0749405, 10.9915022
RCIN, 113732, 1518, 1511, 1512, 1518, 1164, 1515, 968, 968, 1514, 1514, 1514, 1514, 1514, 1514
RCOU, 113733, 1547, 1609, 1626, 1550, 0, 0, 0, 0
IMU, 113739, 0.1173299, 0.009082507, 0.06390557, -0.1043615, -0.5008625, -14.35309
IMU2, 113739, 0.1197965, 0.0007302556, 0.06980116, -0.1862511, -0.7712015, -14.45755
IMU, 113759, 0.08203232, -0.09645598, 0.06323542, 0.04994556, 0.2098341, -13.43424
IMU2, 113759, 0.105957, -0.1187987, 0.06608461, 0.1520451, -0.02535689, -13.97833
IMU, 113779, 0.1117633, -0.1328427, 0.06179887, -0.4502351, -0.453585, -12.93558
IMU2, 113779, 0.1048028, -0.1442933, 0.05927093, -0.5323148, -0.7129953, -13.03798
IMU, 113800, 0.1901091, -0.1251201, 0.07270074, 0.05436557, 0.05213084, -12.8378
IMU2, 113800, 0.1993411, -0.1155799, 0.0771739, -0.199587, -0.2877628, -13.0701
MAG, 113813, -77, 155, 466, -95, -9, 0, 0, 0, 0
MAG2, 113813, -126, 168, 370, -419, -248, -105, 0, 0, 0
GPS, 3, 46263000, 1849, 14, 1.40, 51.0749392, 10.9915003, 0.18, 158.66, 1.03, 157.63, -2.69, 113822
IMU, 113822, 0.2136414, -0.04249056, 0.06835201, -0.108151, 0.291957, -12.06444
IMU2, 113822, 0.2104395, -0.05349254, 0.07635106, 0.08821321, 0.03339112, -12.02009
BARO, 113824, 0.9280533, 99188.75, 44.37, 4.256867
CTUN, 113824, 508, 1, 509, 0, 0.18, 0.92, 0.00, 0.00, 0, 280
ATT, 113833, 4.63, -4.71, 0.00, -0.18, 245.70, 246.20, 0.04, 0.01
EKF1, 113833, -5.07, 0.45, 249.09, -0.7446841, 0.4355902, -2.977078, -0.06798745, 0.1666174, -0.1970066, 0.00, 0.00, 0.00
EKF2, 113833, 47, 0, 0, 0.00, 0.00, 196, 4, 433, 95, 9, 0
EKF3, 113833, 0.69, -0.01, 1.03, 0.22, 0.10, 1.00, 3, -12, -18, 0.00
EKF4, 113834, 0.18, 0.05, 0.09, 0.02, 0.08, 0.11, 0.00, 0, 0, 1, 0
AHR2, 113834, -5.07, 0.45, 249.09, 158.3, 51.0749397, 10.9915026
RCIN, 113834, 1615, 1515, 1484, 1518, 1164, 1515, 968, 968, 1514, 1514, 1514, 1514, 1514, 1514
RCOU, 113834, 1507, 1601, 1610, 1546, 0, 0, 0, 0
IMU, 113841, 0.3743332, 0.05940362, 0.08112462, -0.6520735, -0.6100864, -12.60019
IMU2, 113841, 0.3944595, 0.07652301, 0.07655483, -0.7481602, -0.8582787, -12.77756
IMU, 113861, 0.4114743, 0.1009369, 0.07420916, 0.1624428, 0.4629436, -12.11787
IMU2, 113861, 0.4380578, 0.09154718, 0.07005481, 0.2520593, 0.2237263, -12.41078
IMU, 113881, 0.5568511, 0.1372337, 0.07931519, -0.3064392, -0.4170005, -11.61674
IMU2, 113881, 0.5375559, 0.1245752, 0.081963, -0.2891483, -0.7388785, -11.15067
IMU, 113911, 0.5923004, 0.08234516, 0.07823571, 0.1161321, 0.1889613, -11.83044
IMU2, 113911, 0.6398451, 0.0710016, 0.06638371, 0.1395583, -0.005296707, -12.25577
MAG, 113923, -74, 168, 462, -95, -9, 0, 0, 0, 0
MAG2, 113923, -122, 179, 367, -419, -248, -105, 0, 0, 0
IMU, 113931, 0.6559504, 0.01532994, 0.09451292, -0.1099691, -0.4632774, -11.08516
IMU2, 113931, 0.6420136, 0.0007992443, 0.1066838, -0.1523383, -0.9411256, -10.85141
BARO, 113936, 1.233525, 99185.5, 44.38, 8.690015
CTUN, 113936, 468, 0, 468, 0, 0.56, 1.23, 0.00, 0.00, 0, 303
ATT, 113945, 7.42, -1.36, 0.00, 0.27, 245.70, 246.74, 0.04, 0.01
EKF1, 113945, -1.85, 0.83, 249.43, -0.8985129, 0.4639673, -3.29988, -0.2190465, 0.2074168, -0.6756644, 0.00, 0.00, 0.00
EKF2, 113945, 47, 0, 0, 0.00, 0.00, 196, 4, 433, 95, 9, 0
EKF3, 113945, 0.69, -0.01, 1.03, 0.22, 0.10, 0.84, 2, -12, -17, 0.00
EKF4, 113945, 0.18, 0.05, 0.08, 0.01, 0.07, 0.10, 0.00, 0, 0, 1, 0
AHR2, 113945, -1.85, 0.83, 249.43, 158.78, 51.0749384, 10.9915032
RCIN, 113945, 1632, 1512, 1415, 1517, 1165, 1515, 968, 968, 1514, 1514, 1514, 1514, 1514, 1514
RCOU, 113945, 1443, 1509, 1553, 1488, 0, 0, 0, 0
IMU, 113952, 0.5597685, -0.03256356, 0.07575275, 0.1042547, 0.2600299, -10.69121
IMU2, 113952, 0.5716025, -0.0444287, 0.07798197, 0.3050348, 0.0124687, -10.88963
IMU, 113973, 0.4814368, -0.06085686, 0.09223352, -0.5496701, -0.8315337, -10.46015
IMU2, 113973, 0.4526592, -0.06553307, 0.08009965, -0.7869815, -1.049488, -10.3665
IMU, 113993, 0.5047956, -0.09213354, 0.09350919, 0.2521437, 0.4650672, -9.718118
IMU2, 113993, 0.5234919, -0.09982292, 0.1056959, 0.39227, 0.1746099, -9.970648
IMU, 114014, 0.6065083, -0.04551819, 0.09212254, -1.065353, -0.5748859, -9.022844
IMU2, 114014, 0.6044735, -0.04787036, 0.0851818, -1.199138, -0.8732195, -9.055131
MAG, 114026, -72, 199, 443, -95, -9, 0, 0, 0, 0
MAG2, 114026, -115, 194, 377, -419, -248, -105, 0, 0, 0
GPS, 3, 46263200, 1849, 14, 1.40, 51.0749373, 10.9915012, 0.93, 159.25, 1.17, 159.39, -3.24, 114035
IMU, 114035, 0.6958567, -0.05688453, 0.09956172, 0.7153614, 1.191819, -8.956397
IMU2, 114035, 0.7476084, -0.05618407, 0.1203691, 1.055624, 0.8530849, -9.547451
BARO, 114038, 1.84156, 99179, 44.31, 8.277642
CTUN, 114038, 387, 0, 387, 0, 0.93, 1.84, 0.00, 0.00, 0, 306
ATT, 114048, 11.53, 2.01, 0.00, -0.05, 245.70, 247.34, 0.04, 0.01
EKF1, 114048, 1.26, 0.35, 249.83, -0.9646378, 0.482265, -3.376709, -0.3595573, 0.2483086, -1.125176, 0.00, 0.00, 0.00
EKF2, 114048, 46, 0, 0, 0.00, 0.00, 196, 4, 433, 95, 9, 0
EKF3, 114048, 0.40, 0.03, 0.34, 0.29, 0.09, 1.01, 1, -16, -9, 0.00
EKF4, 114048, 0.08, 0.06, 0.09, 0.01, 0.08, 0.05, 0.00, 0, 0, 1, 0
AHR2, 114048, 1.26, 0.35, 249.83, 159.23, 51.0749371, 10.9915038
RCIN, 114048, 1679, 1508, 1353, 1518, 1165, 1515, 968, 968, 1514, 1514, 1514, 1514, 1514, 1514
RCOU, 114048, 1408, 1420, 1484, 1444, 0, 0, 0, 0
IMU, 114054, 0.8153737, 0.0201252, 0.1204498, -0.7579916, -1.234995, -8.764193
IMU2, 114054, 0.8052695, 0.04357803, 0.0880629, -1.361791, -1.596757, -8.493359
IMU, 114075, 0.7252446, -0.0119904, 0.07673663, -0.5910701, -0.065378, -7.409518
IMU2, 114075, 0.7036237, -0.04281235, 0.07267658, -0.129087, 0.2800474, -7.597778
IMU, 114095, 0.7527353, -0.0008399375, 0.1166523, 1.032154, 1.177636, -8.83346
IMU2, 114095, 0.8088494, 0.02956746, 0.1360208, 1.041708, 0.8069788, -9.374582
IMU, 114124, 0.7068168, 0.03718671, 0.1114066, 1.030348, 1.687727, -7.894894
IMU2, 114124, 0.7770355, 0.06918613, 0.1247436, 1.339705, 1.71954, -9.05136
DU32, 7, 147833
CURR, 114126, 367, 5468, 1083, 2012, 5385, 24.54358
POWR, 114126, 5.38, 5.05, 3
MAG, 114137, -65, 226, 429, -95, -9, 0, 0, 0, 0
MAG2, 114137, -105, 217, 380, -419, -248, -105, 0, 0, 0
IMU, 114145, 0.7755602, 0.1013651, 0.1236337, -1.494257, -2.00781, -6.951494
IMU2, 114145, 0.7708854, 0.09480143, 0.1040298, -1.821166, -2.364147, -6.566079
BARO, 114147, 1.68446, 99180.66, 44.33, 5.970007
CTUN, 114147, 363, 1, 364, 0, 1.32, 1.68, 0.00, 0.00, 0, 287
ATT, 114159, 13.19, 6.76, 0.00, 0.07, 245.70, 248.09, 0.04, 0.01
EKF1, 114159, 6.02, 0.47, 250.48, -0.9530162, 0.4412485, -3.239223, -0.5216824, 0.2874904, -1.591053, 0.00, 0.00, 0.00
EKF2, 114159, 46, 0, 0, 0.00, 0.00, 196, 4, 433, 95, 9, 0
EKF3, 114159, 0.40, 0.03, 0.34, 0.29, 0.09, 0.41, -1, -13, -8, 0.00
EKF4, 114159, 0.08, 0.06, 0.03, 0.00, 0.07, 0.04, 0.00, 0, 0, 1, 0
AHR2, 114159, 6.02, 0.47, 250.48, 159.7, 51.0749357, 10.9915044
RCIN, 114159, 1698, 1511, 1323, 1518, 1165, 1515, 968, 968, 1514, 1514, 1514, 1514, 1514, 1514
RCOU, 114159, 1377, 1373, 1421, 1480, 0, 0, 0, 0
IMU, 114166, 0.5906563, 0.001638487, 0.07606947, 0.7058325, 0.3907242, -7.087981
IMU2, 114166, 0.5568112, -0.02895649, 0.06561942, 1.413229, 1.249432, -7.426353
IMU, 114186, 0.6120914, 0.02380734, 0.117562, -0.09971919, 1.645413, -7.558407
IMU2, 114186, 0.6719083, 0.05131032, 0.1423945, -0.1973089, 1.373486, -8.156644
IMU, 114206, 0.6109622, 0.03113449, 0.139091, -1.703573, -2.367215, -6.435666
IMU2, 114206, 0.5761017, -0.001387704, 0.1191301, -1.805908, -2.868724, -5.928824
GPS, 3, 46263400, 1849, 14, 1.40, 51.0749353, 10.9915023, 1.58, 159.89, 1.16, 160.40, -3.31, 114228
IMU, 114228, 0.4133587, -0.02160672, 0.07033849, 1.280797, -0.08692528, -7.487384
IMU2, 114228, 0.3694524, -0.01040828, 0.05126761, 1.623398, 1.10468, -7.715063
MAG, 114240, -62, 266, 411, -95, -9, 0, 0, 0, 0
MAG2, 114240, -103, 246, 365, -419, -248, -105, 0, 0, 0
IMU, 114248, 0.4270017, 0.08149895, 0.0997739, -0.3403493, 2.833077, -7.40184
IMU2, 114248, 0.4933076, 0.1216976, 0.1309521, -0.7519087, 2.737824, -7.654834
BARO, 114250, 2.42923, 99172.71, 44.29, 4.084778
CTUN, 114250, 330, 2, 332, 0, 1.63, 2.42, 0.00, 0.00, 0, 258
RAD, 114258, 118, 124, 91, 63, 48, 1, 0
RAD, 114258, 118, 124, 91, 63, 48, 1, 0
ATT, 114261, 13.54, 9.88, 0.00, 0.09, 245.70, 248.77, 0.03, 0.04
EKF1, 114261, 9.15, 0.49, 251.09, -0.9065151, 0.4150288, -2.98642, -0.6616981, 0.3185162, -1.957825, 0.00, 0.00, 0.00
EKF2, 114261, 48, 0, 0, 0.00, 0.00, 196, 4, 433, 95, 9, 0
EKF3, 114261, 0.14, 0.10, -0.08, 0.24, 0.09, 0.74, -3, -23, -6, 0.00
EKF4, 114261, 0.03, 0.05, 0.07, 0.02, 0.14, 0.03, 0.00, 0, 0, 1, 0
AHR2, 114261, 9.15, 0.49, 251.09, 160.06, 51.0749344, 10.9915048
RCIN, 114261, 1702, 1513, 1287, 1518, 1164, 1515, 968, 968, 1514, 1514, 1514, 1514, 1514, 1514
RCOU, 114262, 1302, 1378, 1416, 1420, 0, 0, 0, 0
IMU, 114269, 0.5082194, 0.08981375, 0.1518209, -2.006721, -1.416326, -5.701513
IMU2, 114269, 0.4870647, 0.02448067, 0.1368803, -1.44578, -2.438551, -5.68507
IMU, 114288, 0.3938384, 0.02416269, 0.09568363, 1.574587, -2.559318, -6.899446
IMU2, 114288, 0.319743, 0.03117148, 0.05627014, 2.108948, -2.057005, -7.033263
IMU, 114308, 0.2957052, 0.1069434, 0.06481121, 1.60257, 0.2126219, -7.883423
IMU2, 114308, 0.2833377, 0.1887349, 0.07370345, 0.6789411, 0.8815638, -7.731458
IMU, 114328, 0.2553091, 0.1832522, 0.08853652, -2.60611, 1.149767, -6.291922
IMU2, 114328, 0.2622468, 0.1642055, 0.1089645, -3.314473, 1.145347, -5.83218
MAG, 114342, -59, 289, 399, -95, -9, 0, 0, 0, 0
MAG2, 114342, -103, 266, 359, -419, -248, -105, 0, 0, 0
IMU, 114350, 0.2028209, 0.05563127, 0.0945522, -1.495128, 1.063325, -5.229127
IMU2, 114350, 0.2266281, -0.04506994, 0.1006866, 0.2131144, 0.5208586, -5.922506
BARO, 114352, 2.670699, 99170.15, 44.34, 3.166697
CTUN, 114352, 320, 3, 323, 0, 1.93, 2.67, 0.00, 0.00, 0, 225
ATT, 114362, 15.29, 11.73, 0.00, 0.50, 245.70, 249.48, 0.03, 0.07
EKF1, 114362, 10.98, 0.87, 251.73, -0.8192407, 0.3882259, -2.681283, -0.7785088, 0.342969, -2.30198, 0.00, 0.00, 0.00
EKF2, 114362, 48, 0, 0, 0.00, 0.00, 196, 4, 433, 95, 9, 0
EKF3, 114362, 0.14, 0.10, -0.08, 0.24, 0.09, 0.61, -4, -26, -7, 0.00
EKF4, 114362, 0.03, 0.05, 0.05, 0.03, 0.16, 0.04, 0.00, 0, 0, 1, 0
AHR2, 114362, 10.98, 0.87, 251.73, 160.41, 51.0749334, 10.9915052
RCIN, 114362, 1729, 1515, 1275, 1518, 1165, 1515, 968, 968, 1514, 1514, 1514, 1514, 1514, 1514
RCOU, 114363, 1273, 1378, 1434, 1394, 0, 0, 0, 0
IMU, 114370, 0.2422676, 0.008172188, 0.1040116, 2.6462, -0.7353966, -7.192776
IMU2, 114370, 0.2715892, 0.03744296, 0.1085338, 2.853308, -1.235137, -7.566928
IMU, 114390, 0.2557526, 0.05777007, 0.09795358, 1.12655, -2.806811, -6.938839
IMU2, 114390, 0.211335, 0.1135917, 0.06919733, -0.04735339, -3.440098, -6.438601
IMU, 114410, 0.1583293, 0.02478489, 0.03923578, -1.305294, -1.695714, -5.790324
IMU2, 114410, 0.08699887, -0.002079207, 0.0126349, -1.614372, -1.486152, -5.602265
GPS, 3, 46263600, 1849, 14, 1.40, 51.0749334, 10.991503, 2.14, 160.50, 1.01, 163.62, -2.69, 114431
IMU, 114431, 0.1474964, -0.05536785, 0.01859419, 0.2339588, 2.625667, -6.457207
IMU2, 114431, 0.1512016, -0.06582311, 0.03230977, 0.6154605, 3.047054, -6.808148
MAG, 114442, -59, 300, 393, -95, -9, 0, 0, 0, 0
MAG2, 114442, -104, 276, 350, -419, -248, -105, 0, 0, 0
IMU, 114450, 0.2476326, -0.05347981, 0.03621058, 0.007334664, 3.442111, -6.724321
IMU2, 114450, 0.3559157, -0.03168599, 0.09762815, -0.2254217, 3.142767, -7.216052
BARO, 114454, 2.778341, 99168.99, 44.37, 3.130266
CTUN, 114454, 319, 4, 323, 0, 2.19, 2.77, 0.00, 0.00, 0, 189
ATT, 114463, 14.59, 13.02, 0.00, 0.33, 245.70, 249.87, 0.06, 0.07
EKF1, 114463, 12.25, 0.69, 252.07, -0.7050194, 0.3448522, -2.334521, -0.8727969, 0.36474, -2.599864, 0.00, 0.00, 0.00
EKF2, 114463, 50, 0, 0, 0.00, 0.00, 196, 4, 433, 95, 9, 0
EKF3, 114463, 0.04, 0.20, -0.44, 0.18, 0.11, 0.40, -5, -28, -7, 0.00
EKF4, 114463, 0.07, 0.04, 0.03, 0.03, 0.18, 0.04, 0.00, 0, 0, 1, 0
AHR2, 114463, 12.25, 0.69, 252.07, 160.7, 51.0749325, 10.9915055
RCIN, 114463, 1714, 1515, 1274, 1518, 1165, 1515, 968, 968, 1514, 1514, 1514, 1514, 1514, 1514
RCOU, 114464, 1328, 1333, 1405, 1412, 0, 0, 0, 0
IMU, 114470, 0.3809524, -0.04785638, 0.0772501, -2.12424, -0.823162, -5.711097
IMU2, 114470, 0.3871412, -0.06903882, 0.08538704, -2.167364, -2.160549, -5.359046
IMU, 114492, 0.2928321, -0.1155643, 0.008040655, -0.2563979, -2.018403, -5.636003
IMU2, 114492, 0.2374907, -0.1525123, -0.03008862, -0.06398612, -2.007512, -5.509012
IMU, 114511, 0.2086414, -0.116763, -0.02693563, 1.979125, 0.7670747, -6.475825
IMU2, 114511, 0.2201804, -0.09691422, -0.03162488, 2.376995, 0.8207511, -6.760887
IMU, 114531, 0.1803645, -0.07752817, -0.01505871, 1.918777, 1.315096, -6.774674
IMU2, 114531, 0.2119383, -0.04684524, -0.0005630478, 1.471732, 0.4523669, -7.081547
MAG, 114544, -54, 313, 386, -95, -9, 0, 0, 0, 0
MAG2, 114544, -98, 284, 344, -419, -248, -105, 0, 0, 0
IMU, 114552, 0.1504912, -0.007437468, 0.004779394, -0.9837661, -2.542238, -6.089555
IMU2, 114552, 0.1072759, -0.001193943, -0.001316138, -1.388161, -2.915081, -5.816473
BARO, 114554, 3.05763, 99166, 44.39, 3.17012
CTUN, 114554, 319, 5, 324, 0, 2.4, 3.05, 0.00, 0.00, 0, 152
ATT, 114564, 11.88, 14.21, 0.00, -0.10, 245.70, 249.80, 0.06, 0.08
EKF1, 114564, 13.47, 0.24, 251.98, -0.5836236, 0.2973416, -1.959196, -0.9541312, 0.3733935, -2.83243, 0.00, 0.00, 0.00
EKF2, 114564, 50, 0, 0, 0.00, 0.00, 196, 4, 433, 95, 9, 0
EKF3, 114564, 0.04, 0.20, -0.44, 0.18, 0.11, 0.40, -6, -31, -8, 0.00
EKF4, 114564, 0.07, 0.04, 0.03, 0.04, 0.20, 0.05, 0.00, 0, 0, 1, 0
AHR2, 114564, 13.47, 0.24, 251.98, 160.94, 51.0749318, 10.9915056
RCIN, 114564, 1683, 1515, 1274, 1518, 1165, 1515, 968, 968, 1514, 1514, 1514, 1514, 1514, 1514
RCOU, 114564, 1330, 1332, 1391, 1431, 0, 0, 0, 0
IMU, 114572, -0.08598629, -0.009818237, -0.05388081, -2.044422, -2.007251, -5.695641
IMU2, 114572, -0.1631611, -0.03118151, -0.07783432, -2.079943, -1.425518, -5.265504
IMU, 114593, -0.2217878, -0.01859715, -0.07402468, -0.2536685, 2.311691, -6.340189
IMU2, 114593, -0.2069878, -0.03214131, -0.04628704, 0.298172, 2.912618, -6.635096
IMU, 114612, -0.1901925, 0.02053254, -0.03324472, 0.5838747, 2.714902, -6.900579
IMU2, 114612, -0.1540561, 0.02830931, 0.003743012, 0.9946873, 2.508271, -7.482354
GPS, 3, 46263800, 1849, 14, 1.40, 51.0749317, 10.9915037, 2.55, 160.95, 0.85, 162.95, -1.94, 114632
IMU, 114632, -0.1399143, 0.06956469, -0.008327926, -0.4240829, -1.199846, -6.635854
IMU2, 114632, -0.105463, 0.08199594, 0.008040607, -0.5829104, -1.792801, -6.629456
MAG, 114644, -54, 315, 386, -95, -9, 0, 0, 0, 0
MAG2, 114644, -99, 287, 343, -419, -248, -105, 0, 0, 0
IMU, 114653, -0.1729519, 0.07515808, -0.05495776, -0.5928279, -2.919518, -6.114714
IMU2, 114653, -0.2487343, 0.06547033, -0.09761406, -0.8023781, -2.965676, -5.656577
BARO, 114655, 3.246732, 99164, 44.40, 2.651547
CTUN, 114655, 319, 5, 324, 0, 2.58, 3.24, 0.00, 0.00, 0, 115
ATT, 114665, 12.66, 13.27, 0.00, 0.15, 245.70, 249.59, 0.09, 0.09
EKF1, 114665, 12.56, 0.45, 251.77, -0.4658865, 0.2605351, -1.597041, -1.018001, 0.3854425, -3.031973, 0.00, 0.00, 0.00
EKF2, 114665, 49, 0, 0, 0.00, 0.00, 196, 4, 433, 95, 9, 0
EKF3, 114665, 0.04, 0.09, -0.59, 0.13, 0.11, 0.36, -4, -30, -9, 0.00
EKF4, 114665, 0.08, 0.03, 0.03, 0.03, 0.19, 0.06, 0.00, 0, 0, 1, 0
AHR2, 114665, 12.56, 0.45, 251.77, 161.14, 51.0749312, 10.9915058
RCIN, 114665, 1692, 1512, 1274, 1518, 1164, 1515, 968, 968, 1514, 1514, 1514, 1514, 1514, 1514
RCOU, 114665, 1307, 1362, 1404, 1409, 0, 0, 0, 0
IMU, 114673, -0.2273888, 0.05096056, -0.09941091, 0.5948226, -0.3469287, -6.164776
IMU2, 114673, -0.2578449, 0.0474166, -0.1130497, 0.8371061, -0.1349983, -6.209562
IMU, 114693, -0.1743219, 0.05848189, -0.0808593, 0.9115731, 1.442744, -6.458259
IMU2, 114693, -0.1276899, 0.07938352, -0.0534416, 1.069695, 1.395938, -6.691829
IMU, 114713, -0.09774251, 0.07862861, -0.05278402, -0.5408257, 0.2969304, -6.277922
IMU2, 114713, -0.07954699, 0.08701506, -0.03397364, -0.7021627, -0.027071, -6.381064
IMU, 114733, -0.04363563, 0.07034592, -0.04859796, -1.561839, -0.9595047, -6.173267
IMU2, 114733, -0.05058378, 0.04805943, -0.05547719, -1.794762, -1.243975, -6.205396
MAG, 114746, -60, 308, 390, -95, -9, 0, 0, 0, 0
MAG2, 114746, -105, 280, 346, -419, -248, -105, 0, 0, 0
IMU, 114755, -0.007448779, 0.03751396, -0.07333525, -0.3859718, -0.2554384, -6.403679
IMU2, 114755, -0.01144532, 0.03206821, -0.08367154, -0.1028232, -0.1499163, -6.563506
BARO, 114757, 3.432925, 99162, 44.41, 2.147483
CTUN, 114757, 319, 4, 323, 0, 2.72, 3.43, 0.00, 0.00, 0, 79
ATT, 114768, 14.41, 12.72, 0.00, 0.59, 245.70, 249.30, 0.09, 0.09
EKF1, 114768, 12.06, 0.82, 251.48, -0.3600484, 0.2233619, -1.224032, -1.072708, 0.3932475, -3.18368, 0.00, 0.00, 0.00
EKF2, 114768, 49, 0, 0, 0.00, 0.00, 196, 4, 433, 95, 9, 0
EKF3, 114768, 0.04, 0.09, -0.59, 0.13, 0.11, 0.35, -2, -31, -8, 0.00
EKF4, 114768, 0.08, 0.03, 0.03, 0.01, 0.20, 0.05, 0.00, 0, 0, 1, 0
AHR2, 114768, 12.06, 0.82, 251.48, 161.29, 51.0749307, 10.9915059
RCIN, 114768, 1712, 1512, 1274, 1518, 1164, 1515, 968, 968, 1514, 1514, 1514, 1514, 1514, 1514
RCOU, 114769, 1313, 1372, 1397, 1397, 0, 0, 0, 0
IMU, 114776, 0.05186373, 0.04579597, -0.06948353, 0.9447063, 1.149408, -6.379192
IMU2, 114776, 0.06938933, 0.04542883, -0.06185243, 1.122084, 0.9818474, -6.585431
IMU, 114796, 0.1063659, 0.04626115, -0.04661914, 1.060599, 0.2936335, -6.60174
IMU2, 114796, 0.1295591, 0.05075735, -0.04042785, 1.210016, 0.1379032, -6.89204
IMU, 114817, 0.1411561, 0.06984087, -0.03748841, -0.7946514, -2.786787, -6.540771
IMU2, 114817, 0.134973, 0.07880225, -0.04715225, -1.113994, -3.159363, -6.433056
GPS, 3, 46264000, 1849, 14, 1.40, 51.0749304, 10.9915043, 2.82, 161.24, 0.68, 162.81, -1.26, 114838
IMU, 114838, 0.03706815, 0.03566109, -0.07390005, -1.354794, -1.908419, -6.133466
IMU2, 114838, -0.03780318, 0.00654565, -0.08994541, -1.36919, -1.553416, -5.772599
MAG, 114851, -63, 305, 389, -95, -9, 0, 0, 0, 0
MAG2, 114851, -108, 279, 348, -419, -248, -105, 0, 0, 0
IMU, 114859, -0.03137857, 0.01459931, -0.07335123, 0.06205797, 1.45615, -6.604508
IMU2, 114859, -0.04668235, 0.005670102, -0.06686746, 0.3776045, 1.840197, -6.76152
BARO, 114861, 3.499837, 99161.28, 44.42, 1.985313
CTUN, 114861, 317, 4, 321, 0, 2.83, 3.49, 0.00, 0.00, 0, 43
ATT, 114872, 14.59, 13.07, 0.00, 0.89, 245.70, 249.08, 0.07, 0.08
EKF1, 114872, 12.46, 1.09, 251.24, -0.2569031, 0.1927558, -0.8720362, -1.113286, 0.401865, -3.305504, 0.00, 0.00, 0.00
EKF2, 114872, 49, 0, 0, 0.00, 0.00, 196, 4, 433, 95, 9, 0
EKF3, 114872, 0.12, 0.07, -0.50, 0.11, 0.09, 0.27, -3, -28, -8, 0.00
EKF4, 114872, 0.07, 0.02, 0.02, 0.02, 0.18, 0.05, 0.00, 0, 0, 1, 0
AHR2, 114872, 12.46, 1.09, 251.24, 161.41, 51.0749303, 10.991506
RCIN, 114872, 1714, 1511, 1272, 1520, 1165, 1515, 968, 968, 1514, 1514, 1514, 1514, 1514, 1514
RCOU, 114872, 1301, 1383, 1412, 1374, 0, 0, 0, 0
IMU, 114879, 0.02407983, 0.03457091, -0.01953834, 0.1185863, 2.190854, -6.49103
IMU2, 114879, 0.04430665, 0.03402313, 0.009801462, 0.625168, 2.495723, -7.05865
IMU, 114899, 0.07443896, 0.04697909, 0.01732786, -0.8850434, -0.5981366, -6.19975
IMU2, 114899, 0.09661573, 0.05213199, 0.03241661, -0.7660804, -0.01184547, -6.490567
IMU, 114919, 0.04356288, 0.04102538, -0.001633493, -0.5778984, -2.156746, -6.376301
IMU2, 114919, 0.01339582, 0.02338062, -0.02417366, -0.6296704, -2.39551, -6.299531
IMU, 114940, -0.004345353, 0.04608864, -0.03080385, 0.3097982, -0.9743524, -6.798649
IMU2, 114940, -0.02559105, 0.04607134, -0.04665682, 0.3561212, -0.7975019, -6.880397
MAG, 114952, -66, 307, 388, -95, -9, 0, 0, 0, 0
MAG2, 114952, -112, 283, 346, -419, -248, -105, 0, 0, 0
IMU, 114960, -0.02015733, 0.07003006, -0.02519609, 0.2797025, 0.3680088, -7.070426
IMU2, 114960, -0.01171138, 0.08705135, -0.01793221, 0.3189106, 0.4175309, -7.15408
BARO, 114962, 3.499837, 99161.29, 44.43, 1.716033
CTUN, 114962, 319, 4, 323, 0, 2.9, 3.49, 0.00, 0.00, 0, 10
ATT, 114973, 14.94, 13.12, 0.00, 1.20, 245.70, 249.08, 0.07, 0.08
EKF1, 114973, 12.56, 1.38, 251.22, -0.1520403, 0.1646289, -0.5298863, -1.148818, 0.4049811, -3.379255, 0.00, 0.00, 0.00
EKF2, 114973, 49, 0, 0, 0.00, 0.00, 196, 4, 433, 95, 9, 0
EKF3, 114973, 0.12, 0.07, -0.50, 0.11, 0.09, 0.16, -2, -28, -8, 0.00
EKF4, 114973, 0.07, 0.02, 0.01, 0.01, 0.18, 0.05, 0.00, 0, 0, 1, 0
AHR2, 114973, 12.56, 1.38, 251.22, 161.48, 51.07493, 10.991506
RCIN, 114973, 1718, 1511, 1274, 1518, 1164, 1515, 968, 968, 1514, 1514, 1514, 1514, 1514, 1514
RCOU, 114973, 1289, 1389, 1415, 1385, 0, 0, 0, 0
IMU, 114981, -0.005831454, 0.07108364, -0.00669977, 0.5728829, 0.8324245, -6.620304
IMU2, 114981, 0.0138512, 0.0653826, 0.008661129, 0.5582385, 0.1264033, -6.647363
IMU, 115002, 0.0269514, 0.05008748, 0.0202032, 0.4279721, -0.7488571, -6.581074
IMU2, 115002, 0.04557867, 0.0498464, 0.02787133, 0.2955796, -0.9195703, -6.721094
IMU, 115021, 0.06131179, 0.04871479, 0.03137122, -0.7410557, -2.429948, -6.734812
IMU2, 115021, 0.03870241, 0.05060595, 0.02514577, -1.184862, -2.757931, -6.581637
GPS, 3, 46264200, 1849, 14, 1.40, 51.0749294, 10.9915048, 2.93, 161.39, 0.45, 164.48, -0.43, 115041
IMU, 115041, 0.04114391, 0.02765909, 0.01142631, -1.770304, -2.898985, -6.399364
IMU2, 115041, -0.03902504, -0.01138125, -0.0189111, -2.085562, -2.673652, -5.880209
MAG, 115053, -68, 307, 387, -95, -9, 0, 0, 0, 0
MAG2, 115053, -113, 280, 344, -419, -248, -105, 0, 0, 0
IMU, 115062, -0.03022031, -0.03260528, -0.01231905, -0.666009, -0.03669299, -6.618268
IMU2, 115062, -0.07548015, -0.06279084, -0.01238349, -0.2005933, 0.7973777, -6.626292
BARO, 115063, 3.633663, 99159.86, 44.44, 1.185084
CTUN, 115064, 316, 4, 320, 0, 2.93, 3.63, 0.00, 0.00, 0, -22
ATT, 115074, 16.16, 13.22, 0.00, 1.27, 245.70, 249.22, 0.04, 0.07
EKF1, 115074, 12.68, 1.46, 251.34, -0.04355427, 0.1364317, -0.2056441, -1.169528, 0.4081503, -3.415985, 0.00, 0.00, 0.00
EKF2, 115074, 49, 0, 0, 0.00, 0.00, 196, 4, 433, 95, 9, 0
EKF3, 115074, 0.12, 0.11, -0.61, 0.11, 0.08, 0.23, -2, -28, -8, 0.00
EKF4, 115074, 0.09, 0.02, 0.02, 0.01, 0.18, 0.05, 0.00, 0, 0, 1, 0
AHR2, 115074, 12.68, 1.46, 251.34, 161.52, 51.0749298, 10.9915061
RCIN, 115074, 1732, 1512, 1270, 1520, 1165, 1515, 968, 968, 1514, 1514, 1514, 1514, 1514, 1514
RCOU, 115074, 1291, 1371, 1411, 1394, 0, 0, 0, 0
IMU, 115081, -0.008628197, -0.03540861, 0.005409363, 0.9593475, 2.870957, -7.006106
IMU2, 115081, 0.05031821, -0.0195156, 0.04024646, 1.374197, 3.231656, -7.461783
IMU, 115102, 0.1091228, 0.004936844, 0.0515377, -0.04412835, 1.769654, -6.993467
IMU2, 115102, 0.1857354, 0.02585562, 0.0939666, -0.1383692, 1.345994, -7.359653
UBX1, 115122, 0, 96, 12, 1
IMU, 115122, 0.1769333, 0.01838642, 0.07203399, -1.150257, -1.414411, -6.625957
IMU2, 115122, 0.1713593, 0.003517868, 0.06955418, -1.302474, -1.912339, -6.652246
UBX2, 115142, 0, -5, 135, 16, 135
IMU, 115142, 0.163422, 0.005982962, 0.04776522, -0.8740529, -2.086031, -6.674584
IMU2, 115142, 0.1317819, -0.01530253, 0.02048798, -0.8937103, -2.083742, -6.570884
DU32, 7, 147833
CURR, 115144, 321, 8751, 1107, 1131, 5389, 27.87661
POWR, 115144, 5.38, 5.03, 3
MAG, 115153, -69, 311, 385, -95, -9, 0, 0, 0, 0
MAG2, 115153, -112, 282, 342, -419, -248, -105, 0, 0, 0
IMU, 115162, 0.1491727, 0.01435206, 0.02847538, -0.4500534, -0.5537909, -7.127759
IMU2, 115162, 0.137084, 0.02046045, 0.02544137, -0.3876155, -0.3487452, -7.17312
BARO, 115164, 3.633663, 99159.85, 44.45, 0.7532392
CTUN, 115164, 316, 5, 321, 0, 2.94, 3.63, 0.00, 0.00, 0, -52
ATT, 115173, 17.73, 13.95, 0.00, 1.19, 245.70, 249.47, 0.04, 0.06
EKF1, 115174, 13.39, 1.38, 251.57, 0.07150865, 0.1096697, 0.1103232, -1.183928, 0.4050676, -3.415979, 0.00, 0.00, 0.00
EKF2, 115174, 49, 0, 0, 0.00, 0.00, 196, 4, 433, 95, 9, 0
EKF3, 115174, 0.12, 0.11, -0.61, 0.11, 0.08, 0.21, -1, -29, -7, 0.00
EKF4, 115174, 0.09, 0.02, 0.02, 0.00, 0.19, 0.04, 0.00, 0, 0, 1, 0
AHR2, 115174, 13.39, 1.38, 251.57, 161.52, 51.0749297, 10.991506
RCIN, 115174, 1750, 1510, 1271, 1520, 1165, 1515, 968, 968, 1514, 1514, 1514, 1514, 1514, 1514
RCOU, 115174, 1280, 1371, 1419, 1400, 0, 0, 0, 0
IMU, 115181, 0.1403149, 0.02440345, 0.02128542, -0.2990302, 0.6828032, -6.871425
IMU2, 115181, 0.1291925, 0.01775031, 0.02077279, 0.2516507, 1.329193, -6.885183
RAD, 115191, 130, 131, 100, 48, 44, 1, 0
RAD, 115191, 130, 131, 100, 48, 44, 1, 0
IMU, 115201, 0.1413683, 0.003685538, 0.03977062, 0.6464853, 2.183377, -6.919569
IMU2, 115201, 0.2002599, 0.008852387, 0.06979851, 0.9186541, 2.026474, -7.323143
IMU, 115221, 0.2013258, 0.02368291, 0.07993763, 0.1293278, 0.0901469, -6.804251
IMU2, 115221, 0.2747434, 0.03942961, 0.1053682, 0.07571268, -0.4504527, -7.097332
GPS, 3, 46264400, 1849, 14, 1.40, 51.0749287, 10.9915049, 2.92, 161.35, 0.17, 164.48, 0.21, 115241
IMU, 115241, 0.2289996, 0.04198683, 0.09444748, -1.01384, -2.713634, -6.405157
IMU2, 115241, 0.2418886, 0.03325154, 0.08963846, -1.578652, -4.166996, -5.979585
MAG, 115254, -65, 317, 382, -95, -9, 0, 0, 0, 0
MAG2, 115254, -110, 289, 336, -419, -248, -105, 0, 0, 0
IMU, 115264, 0.05026039, -0.01188245, 0.00411415, 0.4514263, -1.217833, -7.114679
IMU2, 115264, -0.01713438, -0.01870382, -0.02025984, 0.9130942, 0.02982128, -7.130168
BARO, 115266, 3.581296, 99160.42, 44.45, 0.5566427
CTUN, 115266, 336, 6, 342, 0, 2.91, 3.58, 0.00, 0.00, 0, -83
ATT, 115277, 18.34, 14.83, 0.00, 1.18, 245.70, 249.79, 0.06, 0.07
EKF1, 115277, 14.29, 1.38, 251.87, 0.1956814, 0.09415557, 0.4283879, -1.180853, 0.4023553, -3.388031, 0.00, 0.00, 0.00
EKF2, 115277, 49, 0, 0, 0.00, 0.00, 196, 4, 433, 95, 9, 0
EKF3, 115277, 0.06, 0.18, -0.59, 0.13, 0.08, 0.17, -3, -29, -8, 0.00
EKF4, 115278, 0.09, 0.03, 0.01, 0.02, 0.19, 0.05, 0.00, 0, 0, 1, 0
AHR2, 115278, 14.29, 1.38, 251.87, 161.49, 51.0749297, 10.991506
RCIN, 115278, 1757, 1508, 1293, 1518, 1165, 1515, 968, 968, 1514, 1514, 1514, 1514, 1514, 1514
RCOU, 115278, 1302, 1389, 1455, 1413, 0, 0, 0, 0
IMU, 115285, 0.0767584, 0.01874647, 0.01910433, 1.189766, 2.567822, -7.966523
IMU2, 115285, 0.1451956, 0.05272155, 0.05753508, 0.9447925, 2.511859, -8.39468
IMU, 115305, 0.1809773, 0.0696522, 0.07373419, -1.258736, -1.510902, -6.862111
IMU2, 115305, 0.1799717, 0.06135911, 0.08188254, -1.400773, -1.584126, -7.081201
IMU, 115325, 0.1464839, 0.04369552, 0.05780118, -1.179166, -3.634017, -6.633249
IMU2, 115325, 0.1041212, 0.0150924, 0.02542208, -1.393537, -3.937933, -6.20886
IMU, 115345, 0.05560756, 0.003192145, 0.007519968, -0.1142846, -2.345224, -7.378483
IMU2, 115345, 0.00123667, -0.002283683, -0.0140877, -0.01865131, -1.391652, -7.326676
MAG, 115359, -66, 325, 380, -95, -9, 0, 0, 0, 0
MAG2, 115359, -111, 298, 326, -419, -248, -105, 0, 0, 0
IMU, 115367, 0.01942359, -0.007830914, 0.02245619, -0.1295015, 1.961131, -8.209781
IMU2, 115367, 0.02046441, -0.003502911, 0.04427747, 0.1752908, 2.021418, -8.546172
BARO, 115369, 3.808218, 99157.99, 44.46, 0.4182661
CTUN, 115369, 347, 7, 354, 0, 2.85, 3.80, 0.00, 0.00, 0, -109
ATT, 115380, 19.39, 15.34, 0.00, 1.14, 245.70, 250.04, 0.06, 0.07
EKF1, 115380, 14.79, 1.34, 252.12, 0.3290311, 0.05694168, 0.6940867, -1.166976, 0.3906111, -3.323594, 0.00, 0.00, 0.00
