FMT, 128, 89, FMT, BBnNZ, Type,Length,Name,Format,Columns
FMT, 129, 31, PARM, QNf, TimeUS,Name,Value
FMT, 130, 50, GPS, QBIHBcLLeeEefB, TimeUS,Status,GMS,GWk,NSats,HDop,Lat,Lng,RAlt,Alt,Spd,GCrs,VZ,U
FMT, 132, 49, IMU, QffffffIIfBB, TimeUS,GyrX,GyrY,GyrZ,AccX,AccY,AccZ,ErrG,ErrA,Temp,GyHlt,AcHlt
FMT, 133, 75, MSG, QZ, TimeUS,Message
FMT, 134, 39, RCIN, Qhhhhhhhhhhhhhh, TimeUS,C1,C2,C3,C4,C5,C6,C7,C8,C9,C10,C11,C12,C13,C14
FMT, 135, 35, RCOU, Qhhhhhhhhhhhh, TimeUS,Ch1,Ch2,Ch3,Ch4,Ch5,Ch6,Ch7,Ch8,Ch9,Ch10,Ch11,Ch12
FMT, 137, 25, BARO, Qffcf, TimeUS,Alt,Press,Temp,CRt
FMT, 138, 17, POWR, QCCH, TimeUS,Vcc,VServo,Flags
FMT, 145, 45, CMD, QHHHfffffff, TimeUS,CTot,CNum,CId,Prm1,Prm2,Prm3,Prm4,Lat,Lng,Alt
FMT, 146, 20, RAD, QBBBBBHH, TimeUS,RSSI,RemRSSI,TxBuf,Noise,RemNoise,RxErrors,Fixed
FMT, 148, 39, CAM, QIHLLeeccC, TimeUS,GPSTime,GPSWeek,Lat,Lng,Alt,RelAlt,Roll,Pitch,Yaw
FMT, 164, 29, ARSP, Qffcff, TimeUS,Airspeed,DiffPress,Temp,RawPress,Offset
FMT, 166, 25, CURR, QhhhHfh, TimeUS,Throttle,Volt,Curr,Vcc,CurrTot,Volt2
FMT, 165, 27, ATT, QccccCCCC, TimeUS,DesRoll,Roll,DesPitch,Pitch,DesYaw,Yaw,ErrRP,ErrYaw
FMT, 167, 30, MAG, QhhhhhhhhhB, TimeUS,MagX,MagY,MagZ,OfsX,OfsY,OfsZ,MOfsX,MOfsY,MOfsZ,Health
FMT, 170, 13, MODE, QMB, TimeUS,Mode,ModeNum
FMT, 131, 50, GPS2, QBIHBcLLeeEefB, TimeUS,Status,GMS,GWk,NSats,HDop,Lat,Lng,RAlt,Alt,Spd,GCrs,VZ,U
FMT, 136, 49, IMU2, QffffffIIfBB, TimeUS,GyrX,GyrY,GyrZ,AccX,AccY,AccZ,ErrG,ErrA,Temp,GyHlt,AcHlt
FMT, 149, 49, IMU3, QffffffIIfBB, TimeUS,GyrX,GyrY,GyrZ,AccX,AccY,AccZ,ErrG,ErrA,Temp,GyHlt,AcHlt
FMT, 139, 29, AHR2, QccCfLL, TimeUS,Roll,Pitch,Yaw,Alt,Lat,Lng
FMT, 180, 27, POS, QLLff, TimeUS,Lat,Lng,Alt,RelAlt
FMT, 140, 29, SIM, QccCfLL, TimeUS,Roll,Pitch,Yaw,Alt,Lat,Lng
FMT, 141, 47, EKF1, QccCffffffccc, TimeUS,Roll,Pitch,Yaw,VN,VE,VD,PN,PE,PD,GX,GY,GZ
FMT, 142, 30, EKF2, Qbbbcchhhhhh, TimeUS,Ratio,AZ1bias,AZ2bias,VWN,VWE,MN,ME,MD,MX,MY,MZ
FMT, 143, 31, EKF3, Qcccccchhhc, TimeUS,IVN,IVE,IVD,IPN,IPE,IPD,IMX,IMY,IMZ,IVT
FMT, 144, 31, EKF4, QcccccccbbBBH, TimeUS,SV,SP,SH,SMX,SMY,SMZ,SVT,OFN,EFE,FS,TS,SS
FMT, 150, 34, TERR, QBLLHffHH, TimeUS,Status,Lat,Lng,Spacing,TerrH,CHeight,Pending,Loaded
FMT, 151, 18, UBX1, QBHBBH, TimeUS,Instance,noisePerMS,jamInd,aPower,agcCnt
FMT, 152, 16, UBX2, QBbBbB, TimeUS,Instance,ofsI,magI,ofsQ,magQ
FMT, 153, 24, UBX3, QBfff, TimeUS,Instance,hAcc,vAcc,sAcc
FMT, 171, 42, GRAW, QIHBBddfBbB, TimeUS,WkMS,Week,numSV,sv,cpMes,prMes,doMes,mesQI,cno,lli
FMT, 172, 24, GRXH, QdHbBB, TimeUS,rcvTime,week,leapS,numMeas,recStat
FMT, 173, 41, GRXS, QddfBBBHBBBBB, TimeUS,prMes,cpMes,doMes,gnss,sv,freq,lock,cno,prD,cpD,doD,trk
FMT, 154, 19, ESC1, Qcccc, TimeUS,RPM,Volt,Curr,Temp
FMT, 155, 19, ESC2, Qcccc, TimeUS,RPM,Volt,Curr,Temp
FMT, 156, 19, ESC3, Qcccc, TimeUS,RPM,Volt,Curr,Temp
FMT, 157, 19, ESC4, Qcccc, TimeUS,RPM,Volt,Curr,Temp
FMT, 158, 19, ESC5, Qcccc, TimeUS,RPM,Volt,Curr,Temp
FMT, 159, 19, ESC6, Qcccc, TimeUS,RPM,Volt,Curr,Temp
FMT, 160, 19, ESC7, Qcccc, TimeUS,RPM,Volt,Curr,Temp
FMT, 161, 19, ESC8, Qcccc, TimeUS,RPM,Volt,Curr,Temp
FMT, 162, 28, EKF5, QBhhhcccCC, TimeUS,normInnov,FIX,FIY,AFI,HAGL,offset,RI,meaRng,errHAGL
FMT, 168, 30, MAG2, QhhhhhhhhhB, TimeUS,MagX,MagY,MagZ,OfsX,OfsY,OfsZ,MOfsX,MOfsY,MOfsZ,Health
FMT, 169, 30, MAG3, QhhhhhhhhhB, TimeUS,MagX,MagY,MagZ,OfsX,OfsY,OfsZ,MOfsX,MOfsY,MOfsZ,Health
FMT, 174, 31, ACC1, QQfff, TimeUS,SampleUS,AccX,AccY,AccZ
FMT, 175, 31, ACC2, QQfff, TimeUS,SampleUS,AccX,AccY,AccZ
FMT, 176, 31, ACC3, QQfff, TimeUS,SampleUS,AccX,AccY,AccZ
FMT, 177, 31, GYR1, QQfff, TimeUS,SampleUS,GyrX,GyrY,GyrZ
FMT, 178, 31, GYR2, QQfff, TimeUS,SampleUS,GyrX,GyrY,GyrZ
FMT, 179, 31, GYR3, QQfff, TimeUS,SampleUS,GyrX,GyrY,GyrZ
FMT, 181, 35, PIDR, Qffffff, TimeUS,Des,P,I,D,FF,AFF
FMT, 182, 35, PIDP, Qffffff, TimeUS,Des,P,I,D,FF,AFF
FMT, 183, 35, PIDY, Qffffff, TimeUS,Des,P,I,D,FF,AFF
FMT, 184, 35, PIDA, Qffffff, TimeUS,Des,P,I,D,FF,AFF
FMT, 185, 35, PIDS, Qffffff, TimeUS,Des,P,I,D,FF,AFF
FMT, 163, 25, BAR2, Qffcf, TimeUS,Alt,Press,Temp,CRt
FMT, 186, 35, VIBE, QfffIII, TimeUS,VibeX,VibeY,VibeZ,Clip0,Clip1,Clip2
FMT, 187, 43, IMT, Qffffffff, TimeUS,DelT,DelvT,DelAX,DelAY,DelAZ,DelVX,DelVY,DelVZ
FMT, 188, 43, IMT2, Qffffffff, TimeUS,DelT,DelvT,DelAX,DelAY,DelAZ,DelVX,DelVY,DelVZ
FMT, 189, 43, IMT3, Qffffffff, TimeUS,DelT,DelvT,DelAX,DelAY,DelAZ,DelVX,DelVY,DelVZ
FMT, 190, 24, ORGN, QBLLe, TimeUS,Type,Lat,Lng,Alt
FMT, 191, 19, RPM, Qff, TimeUS,rpm1,rpm2
FMT, 25, 41, ATUN, QBBfffffff, TimeUS,Axis,TuneStep,Targ,Min,Max,RP,RD,SP,ddt
FMT, 26, 19, ATDE, Qff, TimeUS,Angle,Rate
FMT, 31, 22, PTUN, QBfHHH, TimeUS,Param,TunVal,CtrlIn,TunLo,TunHi
FMT, 12, 28, OF, QBffff, TimeUS,Qual,flowX,flowY,bodyX,bodyY
FMT, 5, 51, NTUN, Qffffffffff, TimeUS,DPosX,DPosY,PosX,PosY,DVelX,DVelY,VelX,VelY,DAccX,DAccY
FMT, 4, 39, CTUN, Qhhfffecchh, TimeUS,ThrIn,AngBst,ThrOut,DAlt,Alt,BarAlt,DSAlt,SAlt,DCRt,CRt
FMT, 6, 24, PM, QHHIhBH, TimeUS,NLon,NLoop,MaxT,PMT,I2CErr,INSErr
FMT, 29, 59, RATE, Qffffffffffff, TimeUS,RDes,R,ROut,PDes,P,POut,YDes,Y,YOut,ADes,A,AOut
FMT, 30, 27, MOTB, Qffff, TimeUS,LiftMax,BatVolt,BatRes,ThLimit
FMT, 10, 11, STRT, Q, TimeUS
FMT, 13, 12, EV, QB, TimeUS,Id
FMT, 20, 14, D16, QBh, TimeUS,Id,Value
FMT, 21, 14, DU16, QBH, TimeUS,Id,Value
FMT, 22, 16, D32, QBi, TimeUS,Id,Value
FMT, 23, 16, DU32, QBI, TimeUS,Id,Value
FMT, 24, 16, DFLT, QBf, TimeUS,Id,Value
FMT, 19, 13, ERR, QBB, TimeUS,Subsys,ECode
FMT, 32, 15, HELI, Qhh, TimeUS,DRRPM,ERRPM
MSG, 186111398, APM:Copter V3.3.2 (7f16e4d6)
MSG, 186111406, PX4: 34e1d543 NuttX: 7c5ef883
MSG, 186111476, PX4v2 003F002A 3233470B 35343439
MSG, 186649647, Frame: QUAD
MSG, 186649656, New mission
CMD, 186649666, 9, 0, 16, 0, 0, 0, 0, 51.07737, 10.98885, 149.37
CMD, 186649678, 9, 1, 16, 0, 0, 0, 0, 51.07728, 10.98858, 20
CMD, 186649690, 9, 2, 16, 0, 0, 0, 0, 51.07638, 10.98854, 20
CMD, 186649702, 9, 3, 16, 0, 0, 0, 0, 51.07641, 10.98711, 63
CMD, 186649714, 9, 4, 16, 0, 0, 0, 0, 51.07731, 10.98715, 20
CMD, 186649727, 9, 5, 16, 0, 0, 0, 0, 51.07728, 10.98858, 20
CMD, 186649739, 9, 6, 16, 0, 0, 0, 0, 51.07728, 10.98858, 60
CMD, 186649751, 9, 7, 16, 0, 0, 0, 0, 51.07728, 10.98858, 20
CMD, 186649763, 9, 8, 21, 0, 0, 0, 0, 51.07728, 10.98858, 20
STRT, 186649767
MODE, 186649769, Stabilize, 0
ORGN, 186650096, 0, 51.0773727, 10.988847, 149.20
ORGN, 186650100, 1, 51.0773872, 10.9888358, 151.03
EV, 187860606, 10
MODE, 187860609, Stabilize, 0
BARO, 187863041, 1.913649, 100057.2, 22.28, 0.2509349
CTUN, 187863051, 0, 0, 67, 0, 1.834256, 1.91, 0.00, 0.00, 0, 0
ATT, 187863283, 0.00, -3.53, 0.00, -3.02, 248.64, 248.64, 0.00, 0.00
EKF1, 187863335, -3.53, -3.02, 248.64, -0.01873435, -0.06327108, 0.003492615, 1.629562, -0.7723652, -1.834256, 0.00, 0.00, 0.00
EKF2, 187863341, 50, -4, 4, 0.00, 0.00, 203, 4, 404, 0, 0, 0
EKF3, 187863345, -0.08, -0.11, 0.04, 0.01, 0.01, -0.05, -6, 6, -2, 0.00
EKF4, 187863399, 0.02, 0.00, 0.00, 0.04, 0.04, 0.01, 0.00, 0, 0, 0, 18, 9023
AHR2, 187863408, -1.22, -3.10, 246.07, 152.94, 51.0773872, 10.9888358
POS, 187863437, 51.0773873, 10.988836, 152.86, 1.834256
RATE, 187863441, 162.6919, 162.6919, -79, 65.92915, 65.92915, -34, 44.49252, 44.49252, 0, 0, 0.9735107, 67
MOTB, 187863454, 1, 1, 0, 1
RCIN, 187863458, 1515, 1515, 1025, 1519, 1165, 1515, 968, 968, 1514, 1514, 1514, 1514, 1514, 1514
RCOU, 187863525, 1025, 1025, 1025, 1025, 0, 0, 0, 0, 0, 1500, 0, 0
VIBE, 187863576, 0.08081336, 0.03651686, 0.1018996, 0, 0, 0
IMU, 187863590, 0.01381243, 0.02450249, -0.0090122, -0.6521173, 0.09305099, -9.892064, 0, 0, 21.43767, 1, 1
IMU2, 187863590, 0.04297775, -0.001488875, 0.02454302, -0.5938028, -0.1232555, -9.733794, 0, 0, 23.375, 1, 1
UBX3, 187879768, 0, 1.511, 1.745, 0.36
UBX3, 187880095, 0, 1.51, 1.745, 0.34
GPS, 187880249, 3, 60138600, 1886, 16, 0.71, 51.0773874, 10.988836, 0.00, 150.97, 0.03, 0.00, -0.06, 1
IMU, 187882971, -0.0006748222, -0.0002531963, 0.002810767, -0.6609493, 0.09817952, -9.893108, 0, 0, 21.52632, 1, 1
IMU2, 187882971, -0.0005179946, 0.004198405, -0.0005028688, -0.6428414, -0.02809167, -9.759564, 0, 0, 23.25, 1, 1
UBX3, 187899672, 0, 1.509, 1.745, 0.37
UBX3, 187899864, 0, 1.51, 1.745, 0.4
UBX1, 187900004, 0, 92, 12, 1, 546
UBX2, 187900096, 0, 0, 134, 15, 141
GPS, 187900227, 3, 60139000, 1886, 15, 0.73, 51.0773874, 10.9888361, 0.00, 150.98, 0.04, 0.00, -0.05, 1
IMU, 187902972, -0.001117989, 0.0002188725, 0.003607455, -0.6472239, 0.05768413, -9.948171, 0, 0, 21.48199, 1, 1
IMU2, 187902972, -0.004255201, 0.00314467, -0.0002862036, -0.5465662, -0.1189482, -9.876662, 0, 0, 23.25, 1, 1
IMU, 187922028, -0.001391249, 0.001359803, -0.002466583, -0.6751304, 0.1336452, -9.807162, 0, 0, 21.48199, 1, 1
IMU2, 187922028, -0.001888667, 0.003786725, -0.001937065, -0.5761089, -0.02305244, -9.709935, 0, 0, 23.25, 1, 1
UBX3, 187939600, 0, 1.513, 1.775, 0.44
GPS, 187939608, 3, 60139000, 1886, 15, 0.73, 51.0773876, 10.9888361, 0.00, 150.95, 0.08, 0.00, -0.01, 1
IMU, 187943224, 0.001861349, -0.0005920128, -0.005973275, -0.6734474, 0.07820744, -9.833835, 0, 0, 21.48199, 1, 1
IMU2, 187943224, 0.0007780183, 0.001402435, -0.002662483, -0.5958954, 0.002679031, -9.827961, 0, 0, 23.25, 1, 1
CURR, 187959542, 67, 1201, 67, 5372, 25.67718, 0
POWR, 187959546, 5.37, 5.06, 3
MAG, 187959573, -55, 175, 414, -88, -10, -12, 0, 0, 0, 1
MAG2, 187959577, -83, 192, 457, -421, -247, -101, 0, 0, 0, 1
BARO, 187963715, 1.833468, 100058.1, 22.28, -0.04836014
CTUN, 187963725, 0, 0, 67, 0, 1.83762, 1.83, 0.00, 0.00, 0, 0
ATT, 187963805, 0.00, -3.53, 0.00, -3.01, 248.64, 248.64, 0.08, 0.00
EKF1, 187963823, -3.53, -3.01, 248.64, -0.04070016, -0.04894136, -0.002807809, 1.629615, -0.7755702, -1.83762, 0.00, 0.00, 0.00
EKF2, 187963829, 49, -4, 4, 0.00, 0.00, 203, 4, 404, 0, 0, 0
EKF3, 187963887, -0.08, 0.00, 0.00, -0.02, -0.01, 0.07, 1, 0, 0, 0.00
EKF4, 187963911, 0.01, 0.00, 0.00, 0.00, 0.00, 0.00, 0.00, 0, 0, 0, 16, 9023
AHR2, 187963920, -1.18, -3.17, 246.06, 152.86, 51.0773876, 10.9888361
POS, 187963988, 51.0773873, 10.988836, 152.86, 1.83762
RATE, 187963993, -6.284257, -6.284257, 2, 0.1531858, 0.1531858, 0, -0.1943917, -0.1943917, 0, 0, 10.74514, 67
MOTB, 187964086, 1, 1, 0, 1
RCIN, 187964090, 1515, 1515, 1025, 1520, 1165, 1515, 968, 968, 1514, 1514, 1514, 1514, 1514, 1514
RCOU, 187964197, 1094, 1094, 1094, 1094, 0, 0, 0, 0, 0, 1500, 0, 0
VIBE, 187964213, 0.2926566, 0.2558663, 0.5829136, 0, 0, 0
IMU, 187966028, -0.004696981, -3.996371E-06, -0.002460899, -0.621538, 0.09595574, -9.915021, 0, 0, 21.48199, 1, 1
IMU2, 187966028, -0.00210797, 0.003258621, -0.0004585586, -0.5914431, -0.019131, -9.83966, 0, 0, 23.25, 1, 1
IMU, 187985189, -3.063039E-05, 0.002417715, 0.00546902, -0.7038888, 0.1092955, -9.913322, 0, 0, 21.48199, 1, 1
IMU2, 187985189, 0.001762467, 0.002094285, 9.96657E-05, -0.5933245, -0.02441808, -9.827042, 0, 0, 23.25, 1, 1
IMU, 188005224, -8.138571E-05, 0.0001140424, 0.001246411, -0.6818749, 0.15008, -9.773751, 0, 0, 21.57064, 1, 1
IMU2, 188005224, -0.001225492, 0.001788836, -0.002875669, -0.6423523, -0.07923471, -9.640365, 0, 0, 23.25, 1, 1
IMU, 188025172, -0.001094167, -0.0008574073, 0.00128385, -0.645487, 0.04351553, -9.872046, 0, 0, 21.48199, 1, 1
IMU2, 188025172, 0.001830555, -0.00279721, -6.00036E-05, -0.5350779, -0.02907986, -9.781115, 0, 0, 23.25, 1, 1
IMU, 188045147, 6.831599E-05, -0.00133976, 0.0006539376, -0.6007593, 0.07668069, -9.974211, 0, 0, 21.48199, 1, 1
IMU2, 188045147, -0.001846689, -0.001240647, -0.001430709, -0.4848858, -0.02033765, -9.703387, 0, 0, 23.25, 1, 1
CURR, 188060346, 67, 1186, 305, 5373, 25.76259, 0
POWR, 188060350, 5.37, 5.05, 3
MAG, 188060379, -54, 175, 418, -88, -10, -12, 0, 0, 0, 1
MAG2, 188060383, -79, 191, 451, -421, -247, -101, 0, 0, 0, 1
BARO, 188064286, 1.78536, 100058.7, 22.28, 0.001272035
CTUN, 188064296, 0, 0, 67, 0, 1.837898, 1.78, 0.00, 0.00, 0, 0
ATT, 188064443, 0.00, -3.53, 0.00, -3.01, 248.64, 248.64, 0.08, 0.00
EKF1, 188064461, -3.53, -3.01, 248.64, -0.05951597, -0.03302662, -0.002733105, 1.628907, -0.7792, -1.837899, 0.00, 0.00, 0.00
EKF2, 188064467, 49, -4, 4, 0.00, 0.00, 203, 4, 404, 0, 0, 0
EKF3, 188064471, -0.08, 0.00, 0.00, -0.02, -0.01, 0.00, 0, 0, -3, 0.00
EKF4, 188064495, 0.01, 0.00, 0.00, 0.00, 0.00, 0.02, 0.00, 0, 0, 0, 16, 9023
AHR2, 188064504, -1.15, -3.17, 246.06, 152.81, 51.0773876, 10.9888361
POS, 188064530, 51.0773873, 10.9888359, 152.86, 1.837899
RATE, 188064535, -28.86673, -28.86673, 0, -14.81873, -14.81873, -4, -11.53379, -11.53379, 0, 0, 9.25045, 67
MOTB, 188064547, 1, 1, 0, 1
RCIN, 188064551, 1515, 1515, 1025, 1520, 1165, 1515, 968, 968, 1514, 1514, 1514, 1514, 1514, 1514
RCOU, 188064618, 1094, 1094, 1094, 1094, 0, 0, 0, 0, 0, 1500, 0, 0
VIBE, 188064690, 0.2665209, 0.3382211, 0.6141551, 0, 0, 0
IMU, 188066082, -0.001179767, 5.304789E-05, -0.002335787, -0.716054, 0.1466576, -9.893285, 0, 0, 21.43767, 1, 1
IMU2, 188066082, -0.007206613, -0.002732642, -0.001060293, -0.7141331, -0.08433686, -9.78205, 0, 0, 23.25, 1, 1
IMU, 188085627, 0.00266922, 0.002004995, -0.003237539, -0.7023908, 0.1298054, -9.87562, 0, 0, 21.43767, 1, 1
IMU2, 188085627, 0.004315426, 0.002420251, 0.0004170927, -0.6578999, -0.1306121, -9.721127, 0, 0, 23.25, 1, 1
IMU, 188105809, 0.0005647029, -0.002069204, -0.003490608, -0.5981071, -0.04970545, -9.865125, 0, 0, 21.43767, 1, 1
IMU2, 188105809, -0.0006929886, 0.001500822, -0.006684465, -0.5217902, -0.2230022, -9.761436, 0, 0, 23.25, 1, 1
UBX1, 188120783, 0, 92, 8, 1, 546
IMU, 188125679, -0.002446326, 2.454736E-05, 0.002188088, -0.7070841, 0.1881853, -9.886816, 0, 0, 21.43767, 1, 1
IMU2, 188125679, -0.003203717, -0.0003343781, -0.000883502, -0.6444298, 0.02211272, -9.738109, 0, 0, 23.25, 1, 1
UBX2, 188140782, 0, -1, 132, 13, 138
IMU, 188145630, 0.004687042, 0.001804087, 0.001796936, -0.6394549, 0.1731155, -9.824748, 0, 0, 21.61496, 1, 1
IMU2, 188145630, 0.006024824, 0.003646605, 0.001800944, -0.6516587, -0.01427174, -9.748214, 0, 0, 23.25, 1, 1
CURR, 188160947, 67, 1190, 248, 5339, 25.8319, 0
POWR, 188160951, 5.33, 5.06, 3
MAG, 188160981, -54, 175, 416, -88, -10, -12, 0, 0, 0, 1
MAG2, 188160985, -81, 193, 453, -421, -247, -101, 0, 0, 0, 1
BARO, 188164726, 1.943048, 100056.9, 22.28, -0.006323674
CTUN, 188164736, 0, 0, 67, 0, 1.836408, 1.94, 0.00, 0.00, 0, 0
ATT, 188164813, 0.00, -3.52, 0.00, -3.01, 248.63, 248.63, 0.08, 0.00
EKF1, 188164831, -3.52, -3.01, 248.63, -0.08447751, -0.0181212, -0.005218404, 1.625007, -0.7813988, -1.836408, 0.00, 0.00, 0.00
EKF2, 188164837, 49, -4, 4, 0.00, 0.00, 203, 4, 404, 0, 0, 0
EKF3, 188164841, -0.08, 0.00, 0.00, -0.02, -0.01, -0.05, 0, 0, -2, 0.00
EKF4, 188164865, 0.01, 0.00, 0.00, 0.00, 0.00, 0.01, 0.00, 0, 0, 0, 16, 9023
AHR2, 188164875, -1.12, -3.18, 246.06, 152.97, 51.0773876, 10.9888361
POS, 188164900, 51.0773872, 10.9888359, 152.86, 1.836408
RATE, 188164905, 0.6217194, 0.6217194, 2, -1.630505, -1.630505, 2, 14.13509, 14.13509, 0, 0, 0.5065918, 67
MOTB, 188164917, 1, 1, 0, 1
RCIN, 188164921, 1515, 1515, 1025, 1518, 1165, 1515, 968, 968, 1514, 1514, 1514, 1514, 1514, 1514
RCOU, 188164988, 1094, 1094, 1094, 1094, 0, 0, 0, 0, 0, 1500, 0, 0
VIBE, 188165004, 0.1977494, 0.583316, 0.4491134, 0, 0, 0
IMU, 188166460, -0.001896812, -0.002796353, 0.005144888, -0.6428776, -0.02789641, -9.87226, 0, 0, 21.43767, 1, 1
IMU2, 188166460, -0.001796346, -0.001215943, -0.002502845, -0.5378011, -0.2032728, -9.825374, 0, 0, 23.375, 1, 1
UBX3, 188181068, 0, 1.512, 1.778, 0.36
GPS, 188181076, 3, 60141000, 1886, 15, 0.73, 51.0773877, 10.9888359, 0.00, 150.96, 0.02, 0.00, 0.01, 1
IMU, 188185958, -0.004594888, 0.002087728, 0.0004014621, -0.674437, 0.1623722, -9.87976, 0, 0, 21.43767, 1, 1
IMU2, 188185958, -0.008408267, 0.0003313635, -0.002393774, -0.5975657, 0.01971023, -9.770001, 0, 0, 23.125, 1, 1
IMU, 188205614, 0.001370885, -0.0001530802, -0.004335181, -0.6182148, 0.118861, -9.924823, 0, 0, 21.57064, 1, 1
IMU2, 188205614, -0.000213548, 0.0007385105, -0.003809631, -0.503928, -0.09281529, -9.810691, 0, 0, 23.25, 1, 1
IMU, 188225611, 0.001038736, 0.000753572, 0.002749863, -0.7255123, 0.03743898, -9.879111, 0, 0, 21.39335, 1, 1
IMU2, 188225611, 0.0007235775, 0.002271364, 0.0001782694, -0.6494922, -0.1804846, -9.709003, 0, 0, 23.375, 1, 1
IMU, 188245617, -0.00257761, 0.001098378, -0.004579251, -0.6186129, 0.1213595, -9.830774, 0, 0, 21.48199, 1, 1
IMU2, 188245617, 1.535123E-05, 0.0002867033, -0.006944082, -0.5583355, -0.03300341, -9.883589, 0, 0, 23.375, 1, 1
CURR, 188260760, 67, 1195, 211, 5354, 25.89045, 0
POWR, 188260764, 5.35, 5.05, 3
MAG, 188260791, -57, 175, 417, -88, -10, -12, 0, 0, 0, 1
MAG2, 188260794, -81, 191, 455, -421, -247, -101, 0, 0, 0, 1
BARO, 188264733, 1.876231, 100057.7, 22.28, -0.174837
CTUN, 188264743, 0, 0, 67, 0, 1.841036, 1.87, 0.00, 0.00, 0, 0
ATT, 188266419, 0.00, -3.52, 0.00, -3.00, 248.62, 248.62, 0.07, 0.00
EKF1, 188266488, -3.52, -3.00, 248.62, -0.1052751, -0.003312847, -0.007950108, 1.618441, -0.7816358, -1.841089, 0.00, 0.00, 0.00
EKF2, 188266494, 49, -4, 4, 0.00, 0.00, 203, 4, 404, 0, 0, 0
EKF3, 188266499, -0.04, -0.02, -0.01, -0.04, 0.00, 0.03, 2, 0, -2, 0.00
EKF4, 188266522, 0.01, 0.00, 0.00, 0.01, 0.00, 0.01, 0.00, 0, 0, 0, 16, 9023
AHR2, 188266532, -1.13, -3.17, 246.05, 152.9, 51.0773877, 10.9888359
POS, 188266557, 51.0773872, 10.9888359, 152.87, 1.841089
RATE, 188266562, 9.189065, 9.189065, -2, -9.553466, -9.553466, 5, 1.601259, 1.601259, 0, 0, -9.663963, 67
MOTB, 188266695, 1, 1, 0, 1
RCIN, 188266699, 1515, 1515, 1025, 1518, 1165, 1515, 968, 968, 1514, 1514, 1514, 1514, 1514, 1514
RCOU, 188266766, 1094, 1094, 1094, 1094, 0, 0, 0, 0, 0, 1500, 0, 0
VIBE, 188266782, 0.1953101, 0.4063269, 0.377986, 0, 0, 0
IMU, 188266845, 0.003104092, -0.003032631, 0.003454604, -0.6546916, 0.2317882, -9.792737, 0, 0, 21.43767, 1, 1
IMU2, 188266845, 0.0001035382, -0.0003023089, -0.002895606, -0.5778582, 0.02041954, -9.602795, 0, 0, 23.25, 1, 1
IMU, 188285610, -0.001211606, 0.0004926839, 0.002892295, -0.7078636, -0.1915672, -9.893465, 0, 0, 21.48199, 1, 1
IMU2, 188285610, -0.002341261, -0.002271441, 0.001097398, -0.7120702, -0.3292481, -9.789718, 0, 0, 23.25, 1, 1
IMU, 188305967, -0.002461225, 0.0005701822, 0.001152652, -0.6402376, 0.3763095, -9.836753, 0, 0, 21.48199, 1, 1
IMU2, 188305967, -0.008847316, 0.0008050503, 0.002123246, -0.5016457, 0.2029843, -9.685629, 0, 0, 23.25, 1, 1
IMU, 188326210, 0.007118535, -0.001197543, 0.0003294789, -0.6458763, -0.08666565, -9.91092, 0, 0, 21.48199, 1, 1
IMU2, 188326210, 0.008421676, -0.003548805, 0.001363995, -0.6186773, -0.3169957, -9.79451, 0, 0, 23, 1, 1
UBX3, 188340892, 0, 1.512, 1.781, 0.41
GPS, 188340901, 3, 60141200, 1886, 15, 0.73, 51.0773878, 10.9888358, 0.01, 150.95, 0.04, 0.00, 0.05, 1
IMU, 188345818, -0.009734298, -0.0009177848, -0.005118678, -0.7007992, 0.07883346, -9.82127, 0, 0, 21.48199, 1, 1
IMU2, 188345818, -0.002422102, -0.003411003, -0.003707287, -0.6693602, 0.1001105, -9.665283, 0, 0, 23.25, 1, 1
CURR, 188360808, 67, 1188, 222, 5341, 25.95217, 0
POWR, 188360812, 5.34, 5.05, 3
MAG, 188360841, -55, 174, 417, -88, -10, -12, 0, 0, 0, 1
MAG2, 188360845, -80, 194, 454, -421, -247, -101, 0, 0, 0, 1
BARO, 188364680, 1.718542, 100059.5, 22.29, 0.1198797
CTUN, 188364689, 0, 0, 67, 0, 1.843093, 1.71, 0.00, 0.00, 0, 0
ATT, 188366185, 0.00, -3.51, 0.00, -3.01, 248.62, 248.62, 0.06, 0.00
EKF1, 188366202, -3.51, -3.01, 248.62, -0.1266518, 0.01342351, -0.008061343, 1.611216, -0.7803038, -1.842968, 0.00, 0.00, 0.00
EKF2, 188366209, 49, -4, 4, 0.00, 0.00, 203, 4, 404, 0, 0, 0
EKF3, 188366213, -0.10, 0.00, -0.05, -0.05, 0.00, -0.12, 0, 0, -2, 0.00
EKF4, 188366294, 0.02, 0.01, 0.01, 0.00, 0.00, 0.01, 0.00, 0, 0, 0, 16, 9023
AHR2, 188366303, -1.14, -3.17, 246.04, 152.74, 51.0773878, 10.9888358
POS, 188366329, 51.0773871, 10.9888359, 152.87, 1.842968
RATE, 188366334, 56.61237, 56.61237, 4, -9.80651, -9.80651, 6, -1.15921, -1.15921, 0, 0, -11.93237, 67
MOTB, 188366346, 1, 1, 0, 1
RCIN, 188366350, 1515, 1515, 1025, 1518, 1165, 1515, 968, 968, 1514, 1514, 1514, 1514, 1514, 1514
RCOU, 188366467, 1094, 1094, 1094, 1094, 0, 0, 0, 0, 0, 1500, 0, 0
VIBE, 188366483, 0.4436853, 0.545031, 0.4018456, 0, 0, 0
IMU, 188366533, 0.006001811, -0.001322467, -0.0003130398, -0.5243339, 0.2720264, -9.748878, 0, 0, 21.48199, 1, 1
IMU2, 188366533, 0.01375954, -0.002100893, -9.151352E-05, -0.6070448, 0.02513758, -9.604128, 0, 0, 23.375, 1, 1
IMU, 188385648, -0.004113532, 0.001825631, 0.001517153, -0.7182757, -0.218666, -9.839543, 0, 0, 21.48199, 1, 1
IMU2, 188385648, -0.006758535, -0.001888716, -0.004794815, -0.6903631, -0.2870474, -9.705577, 0, 0, 23.25, 1, 1
IMU, 188405688, 0.0003400055, -0.0008635506, 0.002624485, -0.5238898, 0.4200114, -9.827963, 0, 0, 21.43767, 1, 1
IMU2, 188405688, -0.0083834, 0.002407214, -0.00328892, -0.4466728, 0.2742958, -9.698586, 0, 0, 23.125, 1, 1
IMU, 188425619, 0.000560732, 0.0003914605, 0.006710846, -0.7801595, -0.134356, -9.912587, 0, 0, 21.52632, 1, 1
IMU2, 188425619, 0.006469805, -0.002816848, 0.004006716, -0.7052315, -0.2651784, -9.791001, 0, 0, 23.125, 1, 1
IMU, 188445672, -0.004998941, 0.0003819054, -0.001717894, -0.5474417, 0.3033639, -9.874206, 0, 0, 21.52632, 1, 1
IMU2, 188445672, -0.01121733, 0.003213128, -0.005488981, -0.4509447, 0.0794958, -9.821595, 0, 0, 23.125, 1, 1
CURR, 188460877, 67, 1189, 222, 5347, 26.01414, 0
POWR, 188460881, 5.34, 5.05, 3
MAG, 188460910, -56, 175, 416, -88, -10, -12, 0, 0, 0, 1
MAG2, 188460914, -81, 192, 455, -421, -247, -101, 0, 0, 0, 1
BARO, 188464580, 1.809414, 100058.4, 22.29, -0.03383131
CTUN, 188464589, 0, 0, 67, 0, 1.838225, 1.80, 0.00, 0.00, 0, 0
ATT, 188466016, 0.00, -3.50, 0.00, -3.00, 248.62, 248.62, 0.06, 0.00
EKF1, 188466041, -3.50, -3.00, 248.62, -0.1473765, 0.0280129, -0.008759555, 1.604209, -0.7785841, -1.838194, 0.00, 0.00, 0.00
EKF2, 188466047, 49, -4, 4, 0.00, 0.00, 203, 4, 404, 0, 0, 0
EKF3, 188466051, -0.10, 0.00, -0.05, -0.05, 0.00, -0.03, 2, 0, -2, 0.00
EKF4, 188466105, 0.02, 0.01, 0.00, 0.01, 0.00, 0.01, 0.00, 0, 0, 0, 16, 9023
AHR2, 188466114, -1.15, -3.17, 246.04, 152.83, 51.0773878, 10.9888358
POS, 188466139, 51.0773871, 10.9888359, 152.86, 1.838194
RATE, 188466144, 32.96959, 32.96959, 2, -1.077549, -1.077549, 0, 19.61503, 19.61503, 0, 0, 1.281929, 67
MOTB, 188466157, 1, 1, 0, 1
RCIN, 188466161, 1515, 1515, 1025, 1518, 1165, 1515, 968, 968, 1514, 1514, 1514, 1514, 1514, 1514
RCOU, 188466228, 1094, 1094, 1094, 1094, 0, 0, 0, 0, 0, 1500, 0, 0
VIBE, 188466304, 0.3683128, 0.6370612, 0.3881178, 0, 0, 0
IMU, 188466318, 0.002059151, -0.001384187, 0.004060273, -0.7420528, -0.002557802, -9.89993, 0, 0, 21.43767, 1, 1
IMU2, 188466318, 0.009449347, 0.001007705, 0.002786801, -0.6689126, -0.1713214, -9.732492, 0, 0, 23.25, 1, 1
IMU, 188485629, -0.004765838, 0.0002237598, -0.007843086, -0.6145185, 0.1570774, -9.868116, 0, 0, 21.52632, 1, 1
IMU2, 188485629, -0.00763431, 0.001917223, -0.008568855, -0.489982, 0.0167491, -9.799093, 0, 0, 23.125, 1, 1
IMU, 188505804, 0.003645116, -0.001201931, 0.001507543, -0.7010992, 0.04400735, -9.854119, 0, 0, 21.43767, 1, 1
IMU2, 188505804, 0.0050311, 0.002378798, 0.008470321, -0.6561551, -0.12875, -9.744332, 0, 0, 23.25, 1, 1
IMU, 188525632, -0.004189191, -0.0006770378, -0.004840172, -0.6261291, 0.09150846, -9.864941, 0, 0, 21.43767, 1, 1
IMU2, 188525632, 0.0007116728, -0.001247937, -0.003965501, -0.5409715, -0.1444379, -9.781421, 0, 0, 23.125, 1, 1
IMU, 188545591, 0.00366662, -0.001409937, 0.004794165, -0.6869186, 0.09433302, -9.850228, 0, 0, 21.43767, 1, 1
IMU2, 188545591, 0.008433, -0.004509919, 0.005209851, -0.6514543, -0.02672281, -9.759363, 0, 0, 23.125, 1, 1
UBX3, 188560606, 0, 1.513, 1.784, 0.45
GPS, 188560614, 3, 60141400, 1886, 15, 0.73, 51.0773878, 10.9888356, 0.00, 150.93, 0.04, 0.00, 0.02, 1
CURR, 188560631, 67, 1195, 225, 5349, 26.07662, 0
POWR, 188560688, 5.34, 5.05, 3
MAG, 188560718, -56, 176, 415, -88, -10, -12, 0, 0, 0, 1
MAG2, 188560721, -81, 192, 456, -421, -247, -101, 0, 0, 0, 1
BARO, 188566161, 1.916322, 100057.2, 22.29, -0.2949603
CTUN, 188566171, 0, 0, 67, 0, 1.837156, 1.91, 0.00, 0.00, 0, 0
ATT, 188566436, 0.00, -3.50, 0.00, -3.00, 248.60, 248.60, 0.05, 0.00
EKF1, 188566453, -3.50, -3.00, 248.60, -0.1658666, 0.04005569, -0.0096582, 1.594092, -0.7755142, -1.837156, 0.00, 0.00, 0.00
EKF2, 188566459, 49, -4, 4, 0.00, 0.00, 203, 4, 404, 0, 0, 0
EKF3, 188566464, -0.16, 0.04, -0.02, -0.06, 0.01, -0.03, 1, 0, -1, 0.00
EKF4, 188566487, 0.03, 0.01, 0.00, 0.01, 0.00, 0.01, 0.00, 0, 0, 0, 16, 9023
AHR2, 188566497, -1.15, -3.17, 246.03, 152.94, 51.0773878, 10.9888356
POS, 188566522, 51.077387, 10.988836, 152.86, 1.837156
RATE, 188566527, -21.32638, -21.32638, 1, -4.954393, -4.954393, -1, -21.09628, -21.09628, 0, 0, 1.451683, 67
MOTB, 188566539, 1, 1, 0, 1
RCIN, 188566543, 1515, 1515, 1025, 1518, 1165, 1515, 968, 968, 1514, 1514, 1514, 1514, 1514, 1514
RCOU, 188566613, 1094, 1094, 1094, 1094, 0, 0, 0, 0, 0, 1500, 0, 0
VIBE, 188566630, 0.3022388, 0.4478079, 0.2866613, 0, 0, 0
IMU, 188566644, -0.00522103, 0.0004571367, -0.001045358, -0.6671306, 0.05347041, -9.868156, 0, 0, 21.48199, 1, 1
IMU2, 188566644, -0.002224172, -0.002187091, -0.006318399, -0.5963882, -0.09542759, -9.766986, 0, 0, 23.375, 1, 1
IMU, 188586121, 0.006234851, -0.001023251, 0.001565168, -0.6102191, 0.1068417, -9.898014, 0, 0, 21.43767, 1, 1
IMU2, 188586121, 0.005058404, 0.003086329, 0.004211041, -0.5275862, -0.1099518, -9.705782, 0, 0, 23.125, 1, 1
IMU, 188606296, -0.005132558, 0.0001578129, -0.005648772, -0.7324446, -0.02673887, -9.866093, 0, 0, 21.52632, 1, 1
IMU2, 188606296, -0.007055509, -0.0009121713, -0.007730474, -0.6143613, -0.1657464, -9.595289, 0, 0, 23.25, 1, 1
IMU, 188626216, 0.007049778, -0.0006347692, 0.002399015, -0.591548, 0.1256971, -9.838118, 0, 0, 21.43767, 1, 1
IMU2, 188626216, 0.005974859, 0.001644212, 0.005640523, -0.5171455, -0.07696726, -9.709243, 0, 0, 23.25, 1, 1
IMU, 188646130, -0.00366461, 0.001708012, -0.002525958, -0.7049852, -0.05541772, -9.88151, 0, 0, 21.43767, 1, 1
IMU2, 188646130, -0.00574838, -0.000192105, -0.0005178538, -0.6351573, -0.1594928, -9.795085, 0, 0, 23.25, 1, 1
CURR, 188661557, 67, 1190, 215, 5357, 26.13709, 0
POWR, 188661561, 5.35, 5.06, 3
MAG, 188661587, -58, 176, 417, -88, -10, -12, 0, 0, 0, 1
MAG2, 188661591, -82, 192, 456, -421, -247, -101, 0, 0, 0, 1
DU32, 188661602, 7, 386520
BARO, 188666174, 1.82545, 100058.2, 22.29, -0.125158
CTUN, 188666184, 0, 0, 67, 0, 1.840888, 1.82, 0.00, 0.00, 0, 0
ATT, 188666482, 0.00, -3.48, 0.00, -3.00, 248.60, 248.60, 0.05, 0.00
EKF1, 188666499, -3.48, -3.00, 248.60, -0.1828653, 0.05194765, -0.01180031, 1.587034, -0.7734892, -1.840888, 0.00, 0.00, 0.00
EKF2, 188666505, 49, -4, 4, 0.00, 0.00, 203, 4, 404, 0, 0, 0
EKF3, 188666509, -0.16, 0.04, -0.02, -0.06, 0.01, 0.07, 3, 0, -3, 0.00
EKF4, 188666541, 0.03, 0.01, 0.00, 0.02, 0.00, 0.01, 0.00, 0, 0, 0, 16, 9023
AHR2, 188666550, -1.15, -3.17, 246.03, 152.85, 51.0773878, 10.9888356
POS, 188666618, 51.0773869, 10.988836, 152.87, 1.840888
RATE, 188666623, 17.6082, 17.6082, 0, -11.24748, -11.24748, 1, 23.06334, 23.06334, 0, 0, 4.621124, 67
MOTB, 188666635, 1, 1, 0, 1
RCIN, 188666639, 1515, 1515, 1025, 1518, 1164, 1515, 968, 968, 1514, 1514, 1514, 1514, 1514, 1514
RCOU, 188666706, 1094, 1094, 1094, 1094, 0, 0, 0, 0, 0, 1500, 0, 0
VIBE, 188666722, 0.3007494, 0.4239932, 0.2918355, 0, 0, 0
IMU, 188666736, 0.004787501, -0.0028576, 0.007511372, -0.5973888, 0.1875355, -9.862499, 0, 0, 21.43767, 1, 1
IMU2, 188666736, 0.001358076, -0.00106928, 0.0005395872, -0.5865711, 0.0363288, -9.823343, 0, 0, 23.25, 1, 1
IMU, 188686502, -0.003967561, 0.001915809, -0.002358956, -0.7323533, -0.06846496, -9.918778, 0, 0, 21.52632, 1, 1
IMU2, 188686502, -0.00210626, -0.001598166, -0.0001170861, -0.6139867, -0.1578794, -9.864844, 0, 0, 23.125, 1, 1
IMU, 188706558, 0.004921851, -0.002106059, 0.007588546, -0.6179351, 0.2106929, -9.891649, 0, 0, 21.52632, 1, 1
IMU2, 188706558, -0.0004466396, -0.0002436843, -0.002435535, -0.4623993, -0.03132017, -9.750967, 0, 0, 23.125, 1, 1
IMU, 188726222, -0.004072085, 0.001174274, -0.009779074, -0.6719853, -0.04697702, -9.860178, 0, 0, 21.43767, 1, 1
IMU2, 188726222, -0.004051005, 0.001455968, -0.003229421, -0.5884431, -0.2195622, -9.6999, 0, 0, 23.125, 1, 1
IMU, 188746228, 0.002941905, -0.002787318, 0.005691624, -0.6446799, 0.2509961, -9.851006, 0, 0, 21.43767, 1, 1
IMU2, 188746228, -0.004340142, 0.001248058, 0.004499048, -0.5290443, 0.0633445, -9.758939, 0, 0, 23.25, 1, 1
RAD, 188748839, 137, 136, 98, 49, 64, 5, 0
RAD, 188751310, 137, 136, 98, 49, 64, 5, 0
UBX3, 188761223, 0, 1.515, 1.788, 0.52
GPS, 188761231, 3, 60141600, 1886, 14, 0.75, 51.0773882, 10.9888352, 0.01, 150.94, 0.14, 0.00, -0.02, 1
CURR, 188761248, 67, 1186, 223, 5341, 26.19898, 0
POWR, 188761252, 5.34, 5.05, 3
MAG, 188761281, -54, 175, 415, -88, -10, -12, 0, 0, 0, 1
MAG2, 188761285, -82, 192, 455, -421, -247, -101, 0, 0, 0, 1
BARO, 188766658, 1.918994, 100057.1, 22.30, 0.2353177
CTUN, 188766668, 0, 0, 67, 0, 1.841118, 1.91, 0.00, 0.00, 0, 1
ATT, 188766830, 0.00, -3.48, 0.00, -2.99, 248.58, 248.58, 0.04, 0.00
EKF1, 188766887, -3.48, -2.99, 248.58, -0.2005586, 0.06243099, -0.01277711, 1.578624, -0.7704403, -1.841118, 0.00, 0.00, 0.00
EKF2, 188766894, 49, -4, 4, 0.00, 0.00, 203, 4, 404, 0, 0, 0
EKF3, 188766898, -0.26, 0.13, 0.01, -0.12, 0.04, -0.01, 0, 0, -1, 0.00
EKF4, 188766921, 0.05, 0.02, 0.00, 0.00, 0.00, 0.01, 0.00, 0, 0, 0, 16, 9023
AHR2, 188766931, -1.16, -3.17, 246.01, 152.94, 51.0773882, 10.9888352
POS, 188766956, 51.0773868, 10.988836, 152.87, 1.841118
RATE, 188766961, -21.93633, -21.93633, 6, 14.2301, 14.2301, 0, -49.01165, -49.01165, 0, 0, -3.045845, 67
MOTB, 188766973, 1, 1, 0, 1
RCIN, 188766977, 1515, 1515, 1025, 1518, 1165, 1515, 968, 968, 1514, 1514, 1514, 1514, 1514, 1514
RCOU, 188767052, 1094, 1094, 1094, 1094, 0, 0, 0, 0, 0, 1500, 0, 0
VIBE, 188767068, 0.2695585, 0.3580342, 0.3011105, 0, 0, 0
IMU, 188767169, -0.003389249, 0.001026721, -0.01277934, -0.6425444, -0.04988144, -9.864334, 0, 0, 21.52632, 1, 1
IMU2, 188767169, -0.004270903, 0.003939968, -0.00432845, -0.5594184, -0.1831443, -9.695017, 0, 0, 23.25, 1, 1
IMU, 188786794, 0.004360395, -0.001667457, 0.01021107, -0.6907749, 0.2405106, -9.827066, 0, 0, 21.52632, 1, 1
IMU2, 188786794, 0.0003644833, 0.003010689, 0.006897552, -0.6562591, 0.01652058, -9.745825, 0, 0, 23.375, 1, 1
IMU, 188807001, -0.002643979, 0.000911242, -0.008880858, -0.6460201, -0.07596595, -9.856517, 0, 0, 21.43767, 1, 1
IMU2, 188807001, -0.003959425, 0.001989589, -0.01017611, -0.6009743, -0.2181998, -9.789257, 0, 0, 23.125, 1, 1
IMU, 188826754, 0.005752306, -0.001215001, 0.01394622, -0.6895583, 0.2705923, -9.851008, 0, 0, 21.52632, 1, 1
IMU2, 188826754, -0.001356669, 0.005964914, 0.005636267, -0.6302675, 0.104778, -9.771824, 0, 0, 23.125, 1, 1
IMU, 188847167, -0.003352403, 0.0008016761, -0.00678474, -0.6658869, -0.1020487, -9.910254, 0, 0, 21.43767, 1, 1
IMU2, 188847167, -0.0003385985, -0.001499416, -0.005878802, -0.5702323, -0.2309797, -9.777431, 0, 0, 23.125, 1, 1
CURR, 188861701, 67, 1193, 211, 5354, 26.25798, 0
POWR, 188861705, 5.35, 5.05, 3
MAG, 188861734, -55, 175, 415, -88, -10, -12, 0, 0, 0, 1
MAG2, 188861738, -81, 190, 455, -421, -247, -101, 0, 0, 0, 1
BARO, 188866894, 1.908303, 100057.3, 22.30, 0.2841161
CTUN, 188866904, 0, 0, 67, 0, 1.846115, 1.90, 0.00, 0.00, 0, 1
ATT, 188867490, 0.00, -3.45, 0.00, -2.99, 248.59, 248.59, 0.04, 0.00
EKF1, 188867507, -3.45, -2.99, 248.59, -0.2081566, 0.07135173, -0.01544585, 1.575952, -0.7717689, -1.846115, 0.00, 0.00, 0.00
EKF2, 188867513, 49, -4, 4, 0.00, 0.00, 203, 4, 404, 0, 0, 0
EKF3, 188867518, -0.26, 0.13, 0.01, -0.12, 0.04, 0.07, 0, 0, -1, 0.00
EKF4, 188867546, 0.05, 0.02, 0.00, 0.00, 0.00, 0.01, 0.00, 0, 0, 0, 16, 9023
AHR2, 188867555, -1.14, -3.18, 246.02, 152.93, 51.0773882, 10.9888352
POS, 188867611, 51.0773868, 10.988836, 152.87, 1.846115
RATE, 188867616, 28.45672, 28.45672, -3, -2.204931, -2.204931, -1, 32.87184, 32.87184, 0, 0, -3.04327, 67
MOTB, 188867629, 1, 1, 0, 1
RCIN, 188867633, 1515, 1515, 1025, 1518, 1165, 1515, 968, 968, 1514, 1514, 1514, 1514, 1514, 1514
RCOU, 188867700, 1094, 1094, 1094, 1094, 0, 0, 0, 0, 0, 1500, 0, 0
VIBE, 188867720, 0.2636817, 0.4042827, 0.3268954, 0, 0, 0
IMU, 188867735, 0.003797937, 0.0003920978, 0.007150341, -0.6203398, 0.2713539, -9.834747, 0, 0, 21.48199, 1, 1
IMU2, 188867735, 0.006132452, -0.001162363, 0.004324625, -0.5824279, 0.1537984, -9.683803, 0, 0, 23.125, 1, 1
IMU, 188887029, -0.003320168, -0.0008749206, -0.007303122, -0.661625, -0.05876063, -9.884637, 0, 0, 21.39335, 1, 1
IMU2, 188887029, 0.0015654, 0.001275182, -0.01010971, -0.6169369, -0.2728864, -9.771158, 0, 0, 23.25, 1, 1
IMU, 188906821, 0.005335375, 0.001131595, 0.002291197, -0.6410737, 0.2723415, -9.842588, 0, 0, 21.43767, 1, 1
IMU2, 188906821, 0.004268941, 0.002984813, -0.002808026, -0.6140996, 0.07679008, -9.760731, 0, 0, 23.25, 1, 1
IMU, 188926814, -0.004548097, 0.0005323943, -0.0009712293, -0.694481, -0.03583091, -9.851468, 0, 0, 21.48199, 1, 1
IMU2, 188926814, -0.004970574, 0.002309388, -0.00497255, -0.5693887, -0.2513216, -9.646632, 0, 0, 23.25, 1, 1
IMU, 188946782, 0.004022643, -0.001503546, 0.006616817, -0.5844746, 0.2464029, -9.797414, 0, 0, 21.48199, 1, 1
IMU2, 188946782, 0.002914408, -0.001707747, 0.00219801, -0.4842106, 0.1103402, -9.619875, 0, 0, 23.25, 1, 1
UBX3, 188961994, 0, 1.516, 1.791, 0.47
GPS, 188962002, 3, 60141800, 1886, 15, 0.73, 51.0773884, 10.9888348, 0.02, 150.94, 0.08, 0.00, -0.01, 1
CURR, 188962026, 67, 1187, 214, 5354, 26.31767, 0
POWR, 188962031, 5.35, 5.04, 3
MAG, 188962060, -55, 173, 416, -88, -10, -12, 0, 0, 0, 1
MAG2, 188962064, -80, 192, 455, -421, -247, -101, 0, 0, 0, 1
BARO, 188967245, 1.79605, 100058.6, 22.30, 0.151274
CTUN, 188967255, 0, 0, 67, 0, 1.850783, 1.79, 0.00, 0.00, 0, 1
ATT, 188967378, 0.00, -3.43, 0.00, -2.99, 248.57, 248.57, 0.04, 0.00
EKF1, 188967395, -3.43, -2.99, 248.57, -0.2193613, 0.08015418, -0.01678055, 1.572371, -0.7722685, -1.850783, 0.00, 0.00, 0.00
EKF2, 188967402, 49, -4, 4, 0.00, 0.00, 203, 4, 404, 0, 0, 0
EKF3, 188967406, -0.25, 0.10, 0.00, -0.16, 0.08, 0.06, 0, 2, -2, 0.00
EKF4, 188967429, 0.05, 0.03, 0.00, 0.00, 0.01, 0.01, 0.00, 0, 0, 0, 16, 9023
AHR2, 188967474, -1.13, -3.18, 246.01, 152.82, 51.0773884, 10.9888348
POS, 188967500, 51.0773868, 10.988836, 152.88, 1.850783
RATE, 188967505, -28.05472, -28.05472, 7, 14.98371, 14.98371, 0, -10.46132, -10.46132, 0, 0, -0.4004478, 67
MOTB, 188967517, 1, 1, 0, 1
RCIN, 188967530, 1515, 1515, 1025, 1518, 1165, 1515, 968, 968, 1514, 1514, 1514, 1514, 1514, 1514
RCOU, 188967603, 1094, 1094, 1094, 1094, 0, 0, 0, 0, 0, 1500, 0, 0
VIBE, 188967619, 0.2751352, 0.4887213, 0.3193422, 0, 0, 0
IMU, 188967634, -0.005445575, 0.0008478496, -0.002921087, -0.7034583, -0.07260673, -9.870799, 0, 0, 21.48199, 1, 1
IMU2, 188967634, -0.004353052, 0.004381959, -0.0007297955, -0.6771753, -0.1877776, -9.732173, 0, 0, 23.25, 1, 1
IMU, 188987342, 0.00707168, -0.002475536, 0.00419302, -0.605547, 0.2317505, -9.849019, 0, 0, 21.48199, 1, 1
IMU2, 188987342, -0.0005629972, -0.005636998, 0.003231094, -0.4963849, 0.08816958, -9.789962, 0, 0, 23.375, 1, 1
IMU, 189007587, -0.00420761, 0.001236865, -0.009246723, -0.6813666, -0.04524126, -9.85192, 0, 0, 21.48199, 1, 1
IMU2, 189007587, -0.003620441, 0.0008466418, -0.003304266, -0.5943049, -0.1291713, -9.616753, 0, 0, 23.25, 1, 1
IMU, 189027475, 0.003379375, -0.0002511782, 0.00703577, -0.6535009, 0.2281685, -9.888996, 0, 0, 21.39335, 1, 1
IMU2, 189027475, 0.002580984, 0.002923108, -8.977082E-05, -0.5908929, 0.06656246, -9.707302, 0, 0, 23.125, 1, 1
IMU, 189047383, -0.003318411, 0.001268025, -0.009702577, -0.6449533, -0.02122093, -9.874521, 0, 0, 21.39335, 1, 1
IMU2, 189047383, -0.001345631, -0.0005441571, -0.01066526, -0.6667608, -0.1392213, -9.732343, 0, 0, 23.125, 1, 1
CURR, 189062715, 67, 1192, 214, 5364, 26.37754, 0
POWR, 189062718, 5.36, 5.07, 3
MAG, 189062748, -56, 174, 416, -88, -10, -12, 0, 0, 0, 1
MAG2, 189062752, -81, 192, 455, -421, -247, -101, 0, 0, 0, 1
BARO, 189067293, 1.836141, 100058.1, 22.30, -0.01219479
CTUN, 189067303, 0, 0, 67, 0, 1.849971, 1.83, 0.00, 0.00, 0, 1
ATT, 189067462, 0.00, -3.40, 0.00, -2.99, 248.57, 248.57, 0.04, 0.00
EKF1, 189067487, -3.40, -2.99, 248.57, -0.225455, 0.0889503, -0.01619552, 1.571088, -0.7737473, -1.849971, 0.00, 0.00, 0.00
EKF2, 189067494, 49, -4, 4, 0.00, 0.00, 203, 4, 404, 0, 0, 0
EKF3, 189067498, -0.25, 0.10, 0.00, -0.16, 0.08, -0.05, 1, 1, -1, 0.00
EKF4, 189067521, 0.05, 0.03, 0.00, 0.01, 0.00, 0.01, 0.00, 0, 0, 0, 16, 9023
AHR2, 189067531, -1.15, -3.18, 246.02, 152.86, 51.0773884, 10.9888348
POS, 189067556, 51.0773868, 10.988836, 152.87, 1.849971
RATE, 189067561, 18.60497, 18.60497, 0, -14.8414, -14.8414, -4, 80.25219, 80.25219, -1, 0, -1.491165, 67
MOTB, 189067573, 1, 1, 0, 1
RCIN, 189067620, 1515, 1515, 1025, 1518, 1164, 1515, 968, 968, 1514, 1514, 1514, 1514, 1514, 1514
RCOU, 189067687, 1094, 1094, 1094, 1094, 0, 0, 0, 0, 0, 1500, 0, 0
VIBE, 189067702, 0.2258213, 0.4532689, 0.2718532, 0, 0, 0
IMU, 189067717, 0.005640303, -0.002144266, 0.01652563, -0.7016153, 0.2355894, -9.831977, 0, 0, 21.57064, 1, 1
IMU2, 189067717, 0.0008485729, -0.00303697, 0.01148856, -0.6609986, 0.0681961, -9.716111, 0, 0, 23.125, 1, 1
IMU, 189087457, -0.004660175, -0.0001202392, -0.01055402, -0.6046646, -0.04630843, -9.852758, 0, 0, 21.57064, 1, 1
IMU2, 189087457, -0.001412052, 0.003392464, -0.008891472, -0.6104407, -0.1900594, -9.707405, 0, 0, 23.125, 1, 1
IMU, 189107373, 0.005170571, -0.001025472, 0.01603394, -0.7195982, 0.2238056, -9.848973, 0, 0, 21.52632, 1, 1
IMU2, 189107373, 0.003781388, 0.001075555, 0.01380785, -0.7051588, 0.02630921, -9.67304, 0, 0, 23.25, 1, 1
IMU, 189127417, -0.004380389, -3.117404E-05, -0.01290905, -0.5974438, -0.01060916, -9.855642, 0, 0, 21.52632, 1, 1
IMU2, 189127417, -0.01214615, -0.001075495, -0.01347371, -0.5623904, -0.09484557, -9.717101, 0, 0, 23.25, 1, 1
UBX3, 189142375, 0, 1.517, 1.794, 0.37
GPS, 189142384, 3, 60142000, 1886, 15, 0.73, 51.0773885, 10.9888346, 0.02, 150.98, 0.03, 0.00, -0.11, 1
IMU, 189147534, 0.005334563, -0.001737918, 0.00916776, -0.6805586, 0.1992503, -9.836688, 0, 0, 21.52632, 1, 1
IMU2, 189147534, 0.005316442, 0.00161358, 0.01631279, -0.6738572, -0.004332833, -9.696846, 0, 0, 23.125, 1, 1
CURR, 189162389, 67, 1193, 206, 5322, 26.43485, 0
POWR, 189162393, 5.32, 5.07, 3
MAG, 189162422, -56, 174, 415, -88, -10, -12, 0, 0, 0, 1
MAG2, 189162426, -81, 193, 454, -421, -247, -101, 0, 0, 0, 1
BARO, 189167380, 1.932358, 100057, 22.30, -0.1728109
CTUN, 189167390, 0, 0, 67, 0, 1.851178, 1.93, 0.00, 0.00, 0, 1
ATT, 189167575, 0.00, -3.38, 0.00, -2.99, 248.55, 248.55, 0.04, 0.00
EKF1, 189167593, -3.38, -2.99, 248.55, -0.2317773, 0.09505477, -0.01720125, 1.569265, -0.7744728, -1.851178, 0.00, 0.00, 0.00
EKF2, 189167599, 50, -4, 4, 0.00, 0.00, 203, 4, 404, 0, 0, 0
EKF3, 189167604, -0.22, 0.10, 0.09, -0.18, 0.09, -0.01, 1, 1, -1, 0.00
EKF4, 189167662, 0.05, 0.04, 0.00, 0.01, 0.00, 0.01, 0.00, 0, 0, 0, 16, 9023
AHR2, 189167672, -1.18, -3.16, 246.01, 152.96, 51.0773885, 10.9888346
POS, 189167697, 51.0773867, 10.988836, 152.88, 1.851178
RATE, 189167702, -30.88604, -30.88604, 7, 13.86268, 13.86268, 0, -32.17881, -32.17881, 0, 0, 3.787899, 67
MOTB, 189167714, 1, 1, 0, 1
RCIN, 189167719, 1515, 1515, 1025, 1518, 1165, 1515, 968, 968, 1514, 1514, 1514, 1514, 1514, 1514
RCOU, 189168006, 1094, 1094, 1094, 1094, 0, 0, 0, 0, 0, 1500, 0, 0
VIBE, 189168030, 0.2383414, 0.4208926, 0.2712162, 0, 0, 0
IMU, 189168045, -0.006430003, -0.0009842137, -0.01131128, -0.6077973, -0.01252041, -9.88796, 0, 0, 21.52632, 1, 1
IMU2, 189168045, -0.004360202, 0.005822734, 8.002981E-05, -0.5003084, -0.2379575, -9.812027, 0, 0, 23.125, 1, 1
IMU, 189187703, 0.006321136, -0.0001311335, 0.005121265, -0.6514295, 0.1947937, -9.829397, 0, 0, 21.52632, 1, 1
IMU2, 189187703, 0.003319801, 0.003644754, 0.01057118, -0.5528837, -0.03640388, -9.864608, 0, 0, 23.125, 1, 1
IMU, 189207414, -0.005461565, -0.0004345464, -0.000825899, -0.6350518, 0.02742963, -9.880535, 0, 0, 21.52632, 1, 1
IMU2, 189207414, -0.0004214772, 0.002481998, -0.0008005975, -0.6019235, -0.1394167, -9.691158, 0, 0, 23.375, 1, 1
IMU, 189227378, 0.006196404, 0.0003032052, 0.005193873, -0.6416439, 0.1825329, -9.861752, 0, 0, 21.52632, 1, 1
IMU2, 189227378, 0.00231303, 0.002082367, 0.005181857, -0.5053819, 0.00454903, -9.713407, 0, 0, 23.25, 1, 1
IMU, 189247469, -0.005404165, -9.232088E-05, -0.004374505, -0.648453, 0.04539837, -9.866785, 0, 0, 21.52632, 1, 1
IMU2, 189247469, -0.009274083, 0.003451516, -0.00298353, -0.5620754, -0.1179696, -9.812434, 0, 0, 23.25, 1, 1
CURR, 189262696, 67, 1193, 222, 5338, 26.4969, 0
POWR, 189262699, 5.33, 5.05, 3
MAG, 189262726, -57, 173, 416, -88, -10, -12, 0, 0, 0, 1
MAG2, 189262730, -80, 193, 455, -421, -247, -101, 0, 0, 0, 1
BARO, 189267301, 1.878904, 100057.6, 22.30, -0.07885408
CTUN, 189267310, 0, 0, 67, 0, 1.858444, 1.87, 0.00, 0.00, 0, 2
ATT, 189267403, 0.00, -3.35, 0.00, -2.98, 248.56, 248.56, 0.04, 0.00
EKF1, 189267428, -3.35, -2.98, 248.56, -0.2407493, 0.1009719, -0.02345785, 1.56685, -0.7752267, -1.858444, 0.00, 0.00, 0.00
EKF2, 189267434, 50, -4, 4, 0.00, 0.00, 203, 4, 404, 0, 0, 0
EKF3, 189267438, -0.22, 0.10, 0.09, -0.18, 0.09, 0.08, 2, 2, -2, 0.00
EKF4, 189267462, 0.05, 0.04, 0.00, 0.01, 0.01, 0.01, 0.00, 0, 0, 0, 16, 9023
AHR2, 189267471, -1.19, -3.16, 246.02, 152.9, 51.0773885, 10.9888346
POS, 189267536, 51.0773867, 10.988836, 152.88, 1.858444
RATE, 189267541, 45.30648, 45.30648, -2, -11.77088, -11.77088, 3, 13.75176, 13.75176, 0, 0, 1.443481, 67
MOTB, 189267553, 1, 1, 0, 1
RCIN, 189267557, 1515, 1515, 1025, 1518, 1165, 1515, 968, 968, 1514, 1514, 1514, 1514, 1514, 1514
RCOU, 189267655, 1094, 1094, 1094, 1094, 0, 0, 0, 0, 0, 1500, 0, 0
VIBE, 189267671, 0.3205746, 0.4715456, 0.3649269, 0, 0, 0
IMU, 189267686, 0.005238654, -0.0008636799, 0.001986813, -0.6572394, 0.1278308, -9.854755, 0, 0, 21.61496, 1, 1
IMU2, 189267686, 0.01056777, -0.00324582, 0.002814886, -0.5218954, -0.1128467, -9.777701, 0, 0, 23.25, 1, 1
IMU, 189287331, -0.005041301, 0.0006501999, -0.008368086, -0.6422407, 0.04502853, -9.871025, 0, 0, 21.57064, 1, 1
IMU2, 189287331, -0.001246997, 9.944274E-05, -0.002148878, -0.5300343, -0.02258133, -9.681003, 0, 0, 23.125, 1, 1
IMU, 189307774, 0.004863843, -8.055997E-05, 0.009161123, -0.7021629, 0.1432367, -9.889794, 0, 0, 21.48199, 1, 1
IMU2, 189307774, 0.006227845, 0.003666143, 0.01382837, -0.5598388, -0.01871226, -9.771557, 0, 0, 23.375, 1, 1
IMU, 189327526, -0.002784227, -0.00132159, -0.007408486, -0.5664044, 0.09761302, -9.87454, 0, 0, 21.48199, 1, 1
IMU2, 189327526, -0.005320863, 0.004132929, -0.008379711, -0.4740096, -0.05658055, -9.713097, 0, 0, 23.375, 1, 1
UBX3, 189342421, 0, 1.518, 1.797, 0.4
GPS, 189342430, 3, 60142200, 1886, 15, 0.73, 51.0773885, 10.9888343, 0.03, 150.98, 0.13, 0.00, -0.13, 1
IMU, 189347475, 0.004996043, -0.00142052, 0.01476473, -0.7073177, 0.1054042, -9.869478, 0, 0, 21.39335, 1, 1
IMU2, 189347475, 0.00615897, 0.00109093, 0.003182156, -0.5832405, -0.1052033, -9.726923, 0, 0, 23.375, 1, 1
CURR, 189362552, 67, 1190, 221, 5338, 26.55826, 0
POWR, 189362556, 5.33, 5.05, 3
MAG, 189362586, -54, 175, 416, -88, -10, -12, 0, 0, 0, 1
MAG2, 189362589, -80, 192, 454, -421, -247, -101, 0, 0, 0, 1
BARO, 189367341, 1.89494, 100057.4, 22.30, 0.1688179
CTUN, 189367351, 0, 0, 67, 0, 1.863529, 1.89, 0.00, 0.00, 0, 2
ATT, 189367846, 0.00, -3.33, 0.00, -2.98, 248.55, 248.55, 0.04, 0.00
EKF1, 189367920, -3.33, -2.98, 248.55, -0.2461821, 0.1007851, -0.0246076, 1.564151, -0.7769455, -1.863529, 0.00, 0.00, 0.00
EKF2, 189367927, 50, -4, 4, 0.00, 0.00, 203, 4, 404, 0, 0, 0
EKF3, 189367931, -0.28, 0.21, 0.11, -0.18, 0.11, 0.02, 0, 0, -2, 0.00
EKF4, 189367954, 0.07, 0.04, 0.00, 0.00, 0.00, 0.01, 0.00, 0, 0, 0, 16, 9023
AHR2, 189367964, -1.21, -3.16, 246.01, 152.92, 51.0773885, 10.9888343
POS, 189367989, 51.0773867, 10.9888359, 152.89, 1.863529
RATE, 189367994, -19.05277, -19.05277, -1, -1.352187, -1.352187, 0, -74.13156, -74.13156, 1, 0, -0.3839493, 67
MOTB, 189368006, 1, 1, 0, 1
RCIN, 189368010, 1515, 1515, 1025, 1518, 1165, 1515, 968, 968, 1514, 1514, 1514, 1514, 1514, 1514
RCOU, 189368098, 1094, 1094, 1094, 1094, 0, 0, 0, 0, 0, 1500, 0, 0
VIBE, 189368115, 0.3050232, 0.460801, 0.3347292, 0, 0, 0
IMU, 189368129, -0.003818677, -0.000258787, -0.0118123, -0.5913455, 0.1270054, -9.855556, 0, 0, 21.57064, 1, 1
IMU2, 189368129, -0.002846507, -0.0002120742, -0.01406256, -0.4242869, 0.02912358, -9.739892, 0, 0, 23.25, 1, 1
IMU, 189387858, 0.004164785, -0.0008621181, 0.01246594, -0.7334107, 0.1121547, -9.850314, 0, 0, 21.48199, 1, 1
IMU2, 189387858, 0.003341617, 0.005200054, 0.009194828, -0.622407, -0.06200903, -9.78924, 0, 0, 23.25, 1, 1
IMU, 189407506, -0.004096097, -0.0003332048, -0.01327917, -0.5781229, 0.1344304, -9.868433, 0, 0, 21.48199, 1, 1
IMU2, 189407506, -0.002922006, -0.003413357, -0.01575238, -0.5002697, -0.02175299, -9.789622, 0, 0, 23.25, 1, 1
IMU, 189427450, 0.005713963, 0.0001570335, 0.00860336, -0.6951368, 0.07292572, -9.844416, 0, 0, 21.52632, 1, 1
IMU2, 189427450, -8.084217E-05, 0.00180684, 0.01041785, -0.6147127, -0.1420119, -9.77874, 0, 0, 23.25, 1, 1
IMU, 189447538, -0.003921991, -0.000821489, -0.007861787, -0.6279734, 0.1472706, -9.859507, 0, 0, 21.52632, 1, 1
IMU2, 189447538, -0.007121721, -0.003812548, -0.01195498, -0.5521085, 0.04539137, -9.760455, 0, 0, 23.25, 1, 1
CURR, 189462311, 67, 1194, 211, 5367, 26.61681, 0
POWR, 189462315, 5.36, 5.05, 3
MAG, 189462342, -56, 173, 416, -88, -10, -12, 0, 0, 0, 1
MAG2, 189462346, -81, 192, 455, -421, -247, -101, 0, 0, 0, 1
BARO, 189467370, 1.830795, 100058.2, 22.30, 0.1662485
CTUN, 189467379, 0, 0, 67, 0, 1.869736, 1.83, 0.00, 0.00, 0, 2
ATT, 189467481, 0.00, -3.29, 0.00, -2.99, 248.54, 248.54, 0.04, 0.00
EKF1, 189467498, -3.29, -2.99, 248.54, -0.2530559, 0.1030143, -0.03005165, 1.563013, -0.783016, -1.869736, 0.00, 0.00, 0.00
EKF2, 189467504, 50, -4, 4, 0.00, 0.00, 203, 4, 404, 0, 0, 0
EKF3, 189467509, -0.28, 0.21, 0.11, -0.18, 0.11, 0.03, 1, 3, -2, 0.00
EKF4, 189467532, 0.07, 0.04, 0.00, 0.00, 0.02, 0.01, 0.00, 0, 0, 0, 16, 9023
AHR2, 189467541, -1.19, -3.18, 246.01, 152.86, 51.0773885, 10.9888343
POS, 189467567, 51.0773867, 10.9888359, 152.89, 1.869736
RATE, 189467572, 36.06784, 36.06784, 1, -19.62355, -19.62355, -1, 16.49299, 16.49299, 0, 0, -0.7421494, 67
MOTB, 189467584, 1, 1, 0, 1
RCIN, 189467588, 1515, 1515, 1025, 1518, 1165, 1515, 968, 968, 1514, 1514, 1514, 1514, 1514, 1514
RCOU, 189467733, 1094, 1094, 1094, 1094, 0, 0, 0, 0, 0, 1500, 0, 0
VIBE, 189467749, 0.3613011, 0.4419816, 0.4041553, 0, 0, 0
IMU, 189467768, 0.005189267, -0.0008047399, 0.00351507, -0.6608199, 0.06350653, -9.856606, 0, 0, 21.52632, 1, 1
IMU2, 189467768, 0.007386795, -0.006044115, 0.002244122, -0.56029, -0.1351339, -9.733198, 0, 0, 23.25, 1, 1
IMU, 189487381, -0.004473236, -0.0006723807, -0.0008134846, -0.6848105, 0.2012811, -9.806483, 0, 0, 21.52632, 1, 1
IMU2, 189487381, -0.002203302, -0.0004119814, -0.002699359, -0.599875, 0.07564478, -9.763981, 0, 0, 23.25, 1, 1
IMU, 189507514, 0.004451807, 0.0006166217, 0.00169988, -0.6303332, 0.009571253, -9.856915, 0, 0, 21.52632, 1, 1
IMU2, 189507514, -0.0005815166, 0.002644585, 0.002986316, -0.5072294, -0.2530077, -9.8049, 0, 0, 23.25, 1, 1
IMU, 189527360, -0.002349638, -0.0001915978, -0.0002906784, -0.6471972, 0.2306314, -9.835143, 0, 0, 21.43767, 1, 1
IMU2, 189527360, -0.01018643, 0.00120496, 0.002363601, -0.6218826, 0.05169371, -9.74942, 0, 0, 23.25, 1, 1
UBX3, 189542505, 0, 1.52, 1.8, 0.4
GPS, 189542513, 3, 60142400, 1886, 15, 0.73, 51.0773886, 10.9888341, 0.04, 150.98, 0.07, 0.00, -0.11, 1
IMU, 189547314, 0.002115757, -0.0001911261, 0.004025171, -0.6434937, -0.04042652, -9.855454, 0, 0, 21.43767, 1, 1
IMU2, 189547314, -0.002970556, 0.007103247, 0.0021437, -0.5382985, -0.2549362, -9.745337, 0, 0, 23.375, 1, 1
CURR, 189562494, 67, 1195, 206, 5365, 26.67421, 0
POWR, 189562497, 5.36, 5.07, 3
MAG, 189562569, -54, 174, 415, -88, -10, -12, 0, 0, 0, 1
MAG2, 189562573, -80, 191, 454, -421, -247, -101, 0, 0, 0, 1
BARO, 189567380, 1.857522, 100057.9, 22.30, -0.04593693
CTUN, 189567389, 0, 0, 67, 0, 1.872756, 1.85, 0.00, 0.00, 0, 2
ATT, 189567482, 0.00, -3.27, 0.00, -2.99, 248.53, 248.53, 0.04, 0.00
EKF1, 189567499, -3.27, -2.99, 248.53, -0.253384, 0.1031663, -0.03048645, 1.562086, -0.7881297, -1.872756, 0.00, 0.00, 0.00
EKF2, 189567506, 50, -5, 4, 0.00, 0.00, 203, 4, 404, 0, 0, 0
EKF3, 189567510, -0.31, 0.10, 0.08, -0.20, 0.12, -0.03, 0, 2, -1, 0.00
EKF4, 189567542, 0.06, 0.04, 0.00, 0.00, 0.01, 0.01, 0.00, 0, 0, 0, 16, 9023
AHR2, 189567552, -1.20, -3.19, 246.01, 152.88, 51.0773886, 10.9888341
POS, 189567613, 51.0773867, 10.9888358, 152.9, 1.872756
RATE, 189567618, -25.06782, -25.06782, -4, 4.930205, 4.930205, 0, -17.3912, -17.3912, 0, 0, -3.968716, 67
MOTB, 189567630, 1, 1, 0, 1
RCIN, 189567634, 1515, 1515, 1025, 1518, 1164, 1515, 968, 968, 1514, 1514, 1514, 1514, 1514, 1514
RCOU, 189567700, 1094, 1094, 1094, 1094, 0, 0, 0, 0, 0, 1500, 0, 0
VIBE, 189567716, 0.3215059, 0.4182023, 0.3428827, 0, 0, 0
IMU, 189567731, -0.002827574, -0.0004564769, -0.004209433, -0.6310859, 0.2334527, -9.790496, 0, 0, 21.52632, 1, 1
IMU2, 189567731, -0.005943961, 0.002178364, -0.001858577, -0.5801497, 0.06889885, -9.714203, 0, 0, 23.375, 1, 1
IMU, 189587303, 0.003264071, -0.001212366, 0.007192535, -0.7017624, -0.03604296, -9.859816, 0, 0, 21.52632, 1, 1
IMU2, 189587303, 0.004278831, 0.001047525, 0.005328253, -0.7068499, -0.247693, -9.749536, 0, 0, 23.125, 1, 1
IMU, 189607391, -0.001700108, -0.000448603, -0.006661217, -0.6303942, 0.2314314, -9.833261, 0, 0, 21.52632, 1, 1
IMU2, 189607391, -0.001866385, 0.006110575, -0.005366168, -0.6439149, 0.07999603, -9.759932, 0, 0, 23.125, 1, 1
IMU, 189627426, 0.00317712, 0.0007162673, 0.008317353, -0.6809439, -0.02626698, -9.823728, 0, 0, 21.52632, 1, 1
IMU2, 189627426, 0.0007647883, 0.0124395, 0.004839282, -0.6730267, -0.1851121, -9.691194, 0, 0, 23.25, 1, 1
IMU, 189647334, -0.001466141, -0.001088444, -0.006056499, -0.6360946, 0.1770667, -9.834632, 0, 0, 21.43767, 1, 1
IMU2, 189647334, 0.0010858, -0.002554333, -0.01036265, -0.5380983, 0.000261922, -9.63034, 0, 0, 23.25, 1, 1
CURR, 189662436, 67, 1194, 206, 5370, 26.73167, 0
POWR, 189662440, 5.37, 5.06, 3
MAG, 189662467, -56, 176, 415, -88, -10, -12, 0, 0, 0, 1
MAG2, 189662471, -80, 190, 455, -421, -247, -101, 0, 0, 0, 1
DU32, 189662481, 7, 386520
BARO, 189667453, 1.881577, 100057.6, 22.29, -0.1545152
CTUN, 189667462, 0, 0, 67, 0, 1.876507, 1.88, 0.00, 0.00, 0, 2
ATT, 189667645, 0.00, -3.24, 0.00, -2.98, 248.53, 248.53, 0.04, 0.00
EKF1, 189667662, -3.24, -2.98, 248.53, -0.2583577, 0.1100389, -0.0294463, 1.563085, -0.7902591, -1.876507, 0.00, 0.00, 0.00
EKF2, 189667668, 50, -5, 4, 0.00, 0.00, 203, 4, 404, 0, 0, 0
EKF3, 189667672, -0.31, 0.10, 0.08, -0.20, 0.12, -0.01, 1, 0, -1, 0.00
EKF4, 189667696, 0.06, 0.04, 0.00, 0.00, 0.00, 0.01, 0.00, 0, 0, 0, 16, 9023
AHR2, 189667710, -1.22, -3.14, 246.01, 152.91, 51.0773886, 10.9888341
POS, 189667735, 51.0773867, 10.9888358, 152.9, 1.876507
RATE, 189667740, -0.1165387, -0.1165387, 2, 15.53037, 15.53037, 0, 43.02379, 43.02379, 0, 0, 2.862835, 67
MOTB, 189667752, 1, 1, 0, 1
RCIN, 189667756, 1515, 1515, 1025, 1518, 1165, 1515, 968, 968, 1514, 1514, 1514, 1514, 1514, 1514
RCOU, 189667961, 1094, 1094, 1094, 1094, 0, 0, 0, 0, 0, 1500, 0, 0
VIBE, 189668019, 0.2901847, 0.341284, 0.3095474, 0, 0, 0
IMU, 189668034, 0.001594853, 0.00104003, 0.005258892, -0.6901908, -0.02180735, -9.860578, 0, 0, 21.52632, 1, 1
IMU2, 189668034, -0.001656601, 0.004381884, 0.009761986, -0.5408766, -0.1961424, -9.809528, 0, 0, 23.25, 1, 1
IMU, 189687626, -0.001689917, -0.0007330655, -0.001755205, -0.6682575, 0.2092698, -9.880688, 0, 0, 21.43767, 1, 1
IMU2, 189687626, -0.0004366389, -0.003250996, -0.003721888, -0.6181095, 0.02116028, -9.828066, 0, 0, 23.375, 1, 1
IMU, 189707301, 0.002154397, 0.0009994481, -0.0003874687, -0.5970376, -0.02931494, -9.83569, 0, 0, 21.43767, 1, 1
IMU2, 189707301, -0.002141754, 0.003579671, 0.0007034407, -0.5997493, -0.195082, -9.677409, 0, 0, 23.25, 1, 1
IMU, 189727277, 0.000170003, -0.001028308, 0.004299773, -0.7237571, 0.2075475, -9.831996, 0, 0, 21.57064, 1, 1
IMU2, 189727277, -0.002502949, -0.003398507, -0.002070638, -0.6266525, 0.04493454, -9.701187, 0, 0, 23.25, 1, 1
IMU, 189747374, 0.0001776199, 2.702892E-06, -0.003804483, -0.5754466, -0.03676277, -9.804149, 0, 0, 21.48199, 1, 1
IMU2, 189747374, -0.00111917, -0.000451013, -0.003705628, -0.5595902, -0.2075737, -9.701592, 0, 0, 23.25, 1, 1
UBX3, 189762248, 0, 1.521, 1.804, 0.41
GPS, 189762256, 3, 60142600, 1886, 15, 0.73, 51.0773886, 10.9888342, 0.05, 150.95, 0.04, 0.00, -0.06, 1
CURR, 189762364, 67, 1192, 202, 5368, 26.78781, 0
POWR, 189762368, 5.36, 5.05, 3
MAG, 189762428, -57, 175, 416, -88, -10, -12, 0, 0, 0, 1
MAG2, 189762432, -81, 189, 454, -421, -247, -101, 0, 0, 0, 1
BARO, 189768121, 1.908303, 100057.3, 22.30, -0.06262884
CTUN, 189768130, 0, 0, 67, 0, 1.880872, 1.90, 0.00, 0.00, 0, 2
ATT, 189768267, 0.00, -3.22, 0.00, -2.98, 248.52, 248.52, 0.04, 0.00
EKF1, 189768285, -3.22, -2.98, 248.52, -0.25844, 0.1180878, -0.02930885, 1.558425, -0.7890462, -1.880872, 0.00, 0.00, 0.00
EKF2, 189768291, 49, -5, 4, 0.00, 0.00, 203, 4, 404, 0, 0, 0
EKF3, 189768296, -0.22, 0.07, 0.02, -0.20, 0.10, 0.00, 2, 1, -3, 0.00
EKF4, 189768319, 0.04, 0.04, 0.00, 0.01, 0.00, 0.02, 0.00, 0, 0, 0, 16, 9023
AHR2, 189768328, -1.25, -3.11, 246.01, 152.93, 51.0773886, 10.9888342
POS, 189768354, 51.0773866, 10.9888358, 152.91, 1.880872
RATE, 189768359, -10.53163, -10.53163, 0, 11.31266, 11.31266, -3, 29.2588, 29.2588, 0, 0, 0.9216309, 67
MOTB, 189768371, 1, 1, 0, 1
RCIN, 189768375, 1515, 1515, 1025, 1518, 1165, 1515, 968, 968, 1514, 1514, 1514, 1514, 1514, 1514
RCOU, 189768441, 1094, 1094, 1094, 1094, 0, 0, 0, 0, 0, 1500, 0, 0
VIBE, 189768458, 0.2811044, 0.2809033, 0.2941077, 0, 0, 0
IMU, 189768472, -0.0006178713, 0.0005055097, 0.00504789, -0.7814017, 0.1969972, -9.847488, 0, 0, 21.52632, 1, 1
IMU2, 189768472, -0.003086148, 0.003443673, 0.005168858, -0.68493, 0.0121624, -9.746938, 0, 0, 23.375, 1, 1
IMU, 189788036, 0.0003571603, -0.00108536, -0.003008979, -0.5387041, 0.003305149, -9.872842, 0, 0, 21.52632, 1, 1
IMU2, 189788036, -0.008904271, 0.005343354, -0.002601292, -0.4892669, -0.193052, -9.64941, 0, 0, 23.125, 1, 1
IMU, 189808432, -0.001044381, 1.894829E-05, 0.0004382374, -0.7735379, 0.1948083, -9.847633, 0, 0, 21.43767, 1, 1
IMU2, 189808432, -0.009129486, 0.003499686, 0.005898375, -0.6452756, -0.003495275, -9.811819, 0, 0, 23.125, 1, 1
IMU, 189828435, -0.0004193418, -0.0006445809, 0.001270789, -0.5708602, 0.008920813, -9.865816, 0, 0, 21.43767, 1, 1
IMU2, 189828435, -0.003249672, 0.0003787324, 0.001502245, -0.4663226, -0.06401461, -9.781877, 0, 0, 23.25, 1, 1
IMU, 189848162, 0.001452712, 0.0001068015, -0.003732371, -0.7446994, 0.161799, -9.858783, 0, 0, 21.43767, 1, 1
IMU2, 189848162, -0.005665288, -0.0009883769, -0.0005020823, -0.6165402, 0.04997636, -9.712102, 0, 0, 23.125, 1, 1
CURR, 189863227, 67, 1195, 208, 5362, 26.84624, 0
POWR, 189863231, 5.36, 5.06, 3
MAG, 189863309, -56, 176, 417, -88, -10, -12, 0, 0, 0, 1
MAG2, 189863313, -82, 191, 455, -421, -247, -101, 0, 0, 0, 1
BARO, 189868069, 1.846832, 100058, 22.31, 0.08600248
CTUN, 189868079, 0, 0, 67, 0, 1.885646, 1.84, 0.00, 0.00, 0, 2
ATT, 189868522, 0.00, -3.22, 0.00, -2.98, 248.51, 248.51, 0.04, 0.00
EKF1, 189868539, -3.22, -2.98, 248.51, -0.2636038, 0.1213493, -0.02822848, 1.556131, -0.7877128, -1.885646, 0.00, 0.00, 0.00
EKF2, 189868545, 49, -5, 4, 0.00, 0.00, 203, 4, 404, 0, 0, 0
EKF3, 189868554, -0.22, 0.07, 0.02, -0.20, 0.10, 0.02, 1, 1, -3, 0.00
EKF4, 189868578, 0.04, 0.04, 0.00, 0.01, 0.00, 0.02, 0.00, 0, 0, 0, 16, 9023
AHR2, 189868587, -1.30, -3.11, 246.01, 152.87, 51.0773886, 10.9888342
POS, 189868613, 51.0773866, 10.9888358, 152.91, 1.885646
RATE, 189868618, -26.53618, -26.53618, 0, -4.909884, -4.909884, 1, 15.22146, 15.22146, 0, 0, -7.371712, 67
MOTB, 189868630, 1, 1, 0, 1
RCIN, 189868688, 1515, 1515, 1025, 1518, 1164, 1515, 968, 968, 1514, 1514, 1514, 1514, 1514, 1514
RCOU, 189868760, 1094, 1094, 1094, 1094, 0, 0, 0, 0, 0, 1500, 0, 0
VIBE, 189868776, 0.2848667, 0.2276646, 0.2765346, 0, 0, 0
IMU, 189868791, -0.001050515, -0.0001140286, 0.002856812, -0.5835122, 0.01627862, -9.844217, 0, 0, 21.52632, 1, 1
IMU2, 189868791, -0.008239713, -0.001599683, 0.002460118, -0.5276229, -0.1715555, -9.622921, 0, 0, 23.25, 1, 1
IMU, 189888494, 0.00105925, -0.0005444975, -0.00269468, -0.7411689, 0.1650512, -9.848656, 0, 0, 21.48199, 1, 1
IMU2, 189888494, -0.001256199, 0.003429181, -0.003943183, -0.6348007, -0.1480145, -9.697968, 0, 0, 23.25, 1, 1
IMU, 189908221, -0.00207154, -0.0004734671, 0.0004791052, -0.5902122, 0.04887726, -9.871948, 0, 0, 21.48199, 1, 1
IMU2, 189908221, -0.01122078, 0.0005752754, 0.005454881, -0.6320355, -0.1229551, -9.64116, 0, 0, 23.25, 1, 1
IMU, 189928301, -0.000265193, -0.0002200933, 0.001022151, -0.7405645, 0.07348931, -9.887259, 0, 0, 21.48199, 1, 1
IMU2, 189928301, 0.0009654997, -0.004884797, 0.001389138, -0.6409057, 0.006071401, -9.708338, 0, 0, 23.125, 1, 1
IMU, 189948180, -0.001081876, -0.000262015, -0.002621449, -0.5531505, 0.1082607, -9.848517, 0, 0, 21.39335, 1, 1
IMU2, 189948180, -0.005232397, 0.002325083, -0.003489881, -0.5277005, -0.06100861, -9.760592, 0, 0, 23.25, 1, 1
UBX3, 189963176, 0, 1.522, 1.807, 0.48
GPS, 189963184, 3, 60142800, 1886, 15, 0.73, 51.0773884, 10.9888343, 0.05, 150.92, 0.04, 0.00, 0.01, 1
CURR, 189963201, 67, 1193, 206, 5368, 26.90368, 0
POWR, 189963205, 5.36, 5.06, 3
MAG, 189963268, -56, 175, 416, -88, -10, -12, 0, 0, 0, 1
MAG2, 189963271, -81, 191, 454, -421, -247, -101, 0, 0, 0, 1
BARO, 189968565, 1.870886, 100057.7, 22.31, 0.09144184
CTUN, 189968574, 0, 0, 67, 0, 1.886887, 1.87, 0.00, 0.00, 0, 2
ATT, 189968717, 0.00, -3.20, 0.00, -2.98, 248.50, 248.50, 0.04, 0.00
EKF1, 189968742, -3.20, -2.98, 248.50, -0.2653177, 0.1319682, -0.02545866, 1.553154, -0.7857201, -1.886887, 0.00, 0.00, 0.00
EKF2, 189968749, 49, -5, 4, 0.00, 0.00, 203, 4, 404, 0, 0, 0
EKF3, 189968753, -0.20, 0.09, -0.03, -0.18, 0.09, -0.03, 1, 1, -2, 0.00
EKF4, 189968863, 0.04, 0.04, 0.00, 0.00, 0.01, 0.01, 0.00, 0, 0, 0, 16, 9023
AHR2, 189968872, -1.34, -3.10, 246.01, 152.9, 51.0773884, 10.9888343
POS, 189968898, 51.0773866, 10.9888358, 152.91, 1.886887
RATE, 189968903, -19.94312, -19.94312, -3, 7.066442, 7.066442, 0, 20.8952, 20.8952, 0, 0, -2.911186, 67
MOTB, 189968915, 1, 1, 0, 1
RCIN, 189968919, 1515, 1515, 1025, 1518, 1165, 1515, 968, 968, 1514, 1514, 1514, 1514, 1514, 1514
RCOU, 189969030, 1094, 1094, 1094, 1094, 0, 0, 0, 0, 0, 1500, 0, 0
VIBE, 189969087, 0.2696302, 0.2140469, 0.2671264, 0, 0, 0
IMU, 189969101, -0.0004298535, 0.000561929, 0.004629889, -0.8046923, 0.06797528, -9.823535, 0, 0, 21.48199, 1, 1
IMU2, 189969101, -0.006566471, 0.001905344, 0.002668312, -0.7433174, -0.08810714, -9.70313, 0, 0, 23.125, 1, 1
IMU, 189988701, -0.001104345, -0.0001304746, -0.005456768, -0.5025684, 0.1165063, -9.834797, 0, 0, 21.57064, 1, 1
IMU2, 189988701, 0.002868289, 0.0002749421, -0.004975459, -0.4401414, -0.07186179, -9.66969, 0, 0, 23.25, 1, 1
IMU, 190008611, -0.0007074163, 0.002015186, 0.004771504, -0.8266146, 0.080342, -9.896215, 0, 0, 21.48199, 1, 1
IMU2, 190008611, 0.001778451, 0.001083616, 0.007210083, -0.8002076, -0.136034, -9.703912, 0, 0, 23.25, 1, 1
IMU, 190028619, -0.0005396754, -0.000993959, -0.003661267, -0.5259663, 0.1239251, -9.906303, 0, 0, 21.48199, 1, 1
IMU2, 190028619, -0.0004882985, 0.0005497518, -0.006583042, -0.362378, -0.02687751, -9.86133, 0, 0, 23.25, 1, 1
IMU, 190048736, -0.001215457, 0.002794278, 0.001517307, -0.8194656, 0.0493261, -9.891247, 0, 0, 21.48199, 1, 1
IMU2, 190048736, 0.002316106, -0.00123081, 0.005715473, -0.7398952, -0.1182665, -9.875735, 0, 0, 23.125, 1, 1
RAD, 190061155, 136, 134, 58, 33, 44, 5, 0
CURR, 190063660, 67, 1192, 217, 5364, 26.96444, 0
POWR, 190063664, 5.36, 5.06, 3
MAG, 190063694, -56, 175, 417, -88, -10, -12, 0, 0, 0, 1
MAG2, 190063698, -81, 192, 455, -421, -247, -101, 0, 0, 0, 1
RAD, 190063747, 136, 134, 58, 33, 44, 5, 0
BARO, 190068549, 1.833468, 100058.1, 22.31, -0.03652238
CTUN, 190068559, 0, 0, 67, 0, 1.88788, 1.83, 0.00, 0.00, 0, 2
ATT, 190068716, 0.00, -3.18, 0.00, -2.97, 248.49, 248.49, 0.04, 0.00
EKF1, 190068733, -3.18, -2.97, 248.49, -0.2726351, 0.1350931, -0.02347435, 1.547673, -0.7832265, -1.88788, 0.00, 0.00, 0.00
